id,CASE_STATUS,EMPLOYER_NAME,SOC_NAME,JOB_TITLE,FULL_TIME_POSITION,PREVAILING_WAGE,YEAR,WORKSITE,lon,lat
1,CERTIFIED-WITHDRAWN,UNIVERSITY OF MICHIGAN,BIOCHEMISTS AND BIOPHYSICISTS,POSTDOCTORAL RESEARCH FELLOW,N,36067,2016,"ANN ARBOR, MICHIGAN",-83.7430378,42.2808256
2,CERTIFIED-WITHDRAWN,"GOODMAN NETWORKS, INC.",CHIEF EXECUTIVES,CHIEF OPERATING OFFICER,Y,242674,2016,"PLANO, TEXAS",-96.6988856,33.0198431
3,CERTIFIED-WITHDRAWN,"PORTS AMERICA GROUP, INC.",CHIEF EXECUTIVES,CHIEF PROCESS OFFICER,Y,193066,2016,"JERSEY CITY, NEW JERSEY",-74.0776417,40.7281575
4,CERTIFIED-WITHDRAWN,"GATES CORPORATION, A WHOLLY-OWNED SUBSIDIARY OF TOMKINS PLC",CHIEF EXECUTIVES,"REGIONAL PRESIDEN, AMERICAS",Y,220314,2016,"DENVER, COLORADO",-104.990251,39.7392358
5,WITHDRAWN,PEABODY INVESTMENTS CORP.,CHIEF EXECUTIVES,PRESIDENT MONGOLIA AND INDIA,Y,157518.4,2016,"ST. LOUIS, MISSOURI",-90.1994042,38.6270025
6,CERTIFIED-WITHDRAWN,BURGER KING CORPORATION,CHIEF EXECUTIVES,"EXECUTIVE V P, GLOBAL DEVELOPMENT AND PRESIDENT, LATIN AMERI",Y,225000,2016,"MIAMI, FLORIDA",-80.1917902,25.7616798
7,CERTIFIED-WITHDRAWN,BT AND MK ENERGY AND COMMODITIES,CHIEF EXECUTIVES,CHIEF OPERATING OFFICER,Y,91021,2016,"HOUSTON, TEXAS",-95.3698028,29.7604267
8,CERTIFIED-WITHDRAWN,"GLOBO MOBILE TECHNOLOGIES, INC.",CHIEF EXECUTIVES,CHIEF OPERATIONS OFFICER,Y,150000,2016,"SAN JOSE, CALIFORNIA",-121.8863286,37.3382082
9,CERTIFIED-WITHDRAWN,ESI COMPANIES INC.,CHIEF EXECUTIVES,PRESIDENT,Y,127546,2016,"MEMPHIS, TEXAS",NA,NA
10,WITHDRAWN,LESSARD INTERNATIONAL LLC,CHIEF EXECUTIVES,PRESIDENT,Y,154648,2016,"VIENNA, VIRGINIA",-77.2652604,38.9012225
11,CERTIFIED-WITHDRAWN,H.J. HEINZ COMPANY,CHIEF EXECUTIVES,"CHIEF INFORMATION OFFICER, HEINZ NORTH AMERICA",Y,182978,2016,"PITTSBURGH, PENNSYLVANIA",-79.9958864,40.4406248
12,CERTIFIED-WITHDRAWN,DOW CORNING CORPORATION,CHIEF EXECUTIVES,VICE PRESIDENT AND CHIEF HUMAN RESOURCES OFFICER,Y,163717,2016,"MIDLAND, MICHIGAN",-84.2472116,43.6155825
13,CERTIFIED-WITHDRAWN,ACUSHNET COMPANY,CHIEF EXECUTIVES,TREASURER AND COO,Y,203860.8,2016,"FAIRHAVEN, MASSACHUSETTS",NA,NA
14,CERTIFIED-WITHDRAWN,"BIOCAIR, INC.",CHIEF EXECUTIVES,CHIEF COMMERCIAL OFFICER,Y,252637,2016,"MIAMI, FLORIDA",-80.1917902,25.7616798
15,CERTIFIED-WITHDRAWN,NEWMONT MINING CORPORATION,CHIEF EXECUTIVES,BOARD MEMBER,Y,105914,2016,"GREENWOOD VILLAGE, COLORADO",-104.9508141,39.6172101
16,CERTIFIED-WITHDRAWN,"VRICON, INC.",CHIEF EXECUTIVES,CHIEF FINANCIAL OFFICER,Y,153046,2016,"STERLING, VIRGINIA",-77.4291298,39.0066993
17,CERTIFIED-WITHDRAWN,CARDIAC SCIENCE CORPORATION,FINANCIAL MANAGERS,VICE PRESIDENT OF FINANCE,Y,90834,2016,"WAUKESHA, WISCONSIN",-88.2314813,43.0116784
18,CERTIFIED-WITHDRAWN,WESTFIELD CORPORATION,CHIEF EXECUTIVES,"GENERAL MANAGER, OPERATIONS",Y,164050,2016,"LOS ANGELES, CALIFORNIA",-118.2436849,34.0522342
19,CERTIFIED,QUICKLOGIX LLC,CHIEF EXECUTIVES,CEO,Y,187200,2016,"SANTA CLARA, CALIFORNIA",-121.9552356,37.3541079
20,CERTIFIED,"MCCHRYSTAL GROUP, LLC",CHIEF EXECUTIVES,"PRESIDENT, NORTHEAST REGION",Y,241842,2016,"ALEXANDRIA, VIRGINIA",-77.0469214,38.8048355
21,CERTIFIED-WITHDRAWN,"CUDDLE BARN, INC.",CHIEF EXECUTIVES,CHIEF OPERATING OFFICER (COO),Y,117998,2016,"COMMERCE, CALIFORNIA",-118.1597929,34.0005691
22,CERTIFIED-WITHDRAWN,WESTFIELD CORPORATION,CHIEF EXECUTIVES,"GENERAL MANAGER, OPERATIONS",Y,164050,2016,"LOS ANGELES, CALIFORNIA",-118.2436849,34.0522342
23,CERTIFIED,"LOMICS, LLC",CHIEF EXECUTIVES,CEO,Y,99986,2016,"SAN DIEGO, CALIFORNIA",-117.1610838,32.715738
24,CERTIFIED,UC UNIVERSITY HIGH SCHOOL EDUCATION INC.,CHIEF EXECUTIVES,CHIEF FINANCIAL OFFICER,Y,99986,2016,"CHULA VISTA, CALIFORNIA",-117.0841955,32.6400541
25,CERTIFIED-WITHDRAWN,VMS COMMUNICATIONS LLC,CHIEF EXECUTIVES,CHIEF OPERATING OFFICER,Y,159370,2016,"MIAMI, FLORIDA",-80.1917902,25.7616798
26,CERTIFIED,"QUICKLOGIX, INC.",CHIEF EXECUTIVES,CEO,Y,187200,2016,"SANTA CLARA, CALIFORNIA",-121.9552356,37.3541079
27,CERTIFIED-WITHDRAWN,FOODESSENTIALS CORPORATION,CHIEF EXECUTIVES,CHIEF EXECUTIVE OFFICER,Y,130853,2016,"CHICAGO, ILLINOIS",-87.6297982,41.8781136
28,CERTIFIED,HELLO INC.,CHIEF EXECUTIVES,CHIEF BUSINESS OFFICER,Y,215862,2016,"SAN FRANCISCO, CALIFORNIA",-122.4194155,37.7749295
29,CERTIFIED,UMBEL CORP,CHIEF EXECUTIVES,VICE PRESIDENT OF ENGINEERING,Y,192088,2016,"AUSTIN, TEXAS",-97.7430608,30.267153
30,CERTIFIED,"PERSPECTIVES OF FREEDOM FOUNDATION, INC",CHIEF EXECUTIVES,EXECUTIVE DIRECTOR,Y,95295.98,2016,"WESTON, FLORIDA",-80.3997748,26.1003654
31,CERTIFIED,GTH INC.,CHIEF EXECUTIVES,"VICE PRESIDENT, BUSINESS DEVELOPMENT",Y,149594,2016,"WASHINGTON, DISTRICT OF COLUMBIA",-77.0368707,38.9071923
32,CERTIFIED,THE KRAFT HEINZ COMPANY,CHIEF EXECUTIVES,HEAD OF US SALES,Y,226699,2016,"CHICAGO, ILLINOIS",-87.6297982,41.8781136
33,CERTIFIED,"REGED, INC.",CHIEF EXECUTIVES,CHIEF FINANCIAL OFFICER,Y,187200,2016,"MORRISVILLE, NORTH CAROLINA",-78.8255621,35.823483
34,CERTIFIED,VMS COMMUNICATIONS LLC,CHIEF EXECUTIVES,CHIEF OPERATING OFFICER,Y,159370,2016,"MIAMI, FLORIDA",-80.1917902,25.7616798
35,CERTIFIED,"FINLAY EXTRACTS & INGREDIENTS USA, INC.",CHIEF EXECUTIVES,VICE PRESIDENT OF OPERATIONS,Y,98550,2016,"LINCOLN, RHODE ISLAND",-71.4418101,41.9110123
36,CERTIFIED-WITHDRAWN,LABEL INSIGHT,CHIEF EXECUTIVES,CHIEF EXECUTIVE OFFICER,Y,130853,2016,"CHICAGO, ILLINOIS",-87.6297982,41.8781136
37,CERTIFIED,LABEL INSIGHT,CHIEF EXECUTIVES,CHIEF EXECUTIVE OFFICER,Y,130853,2016,"CHICAGO, ILLINOIS",-87.6297982,41.8781136
38,CERTIFIED,INN AT THE WICKLIFFE LLC,CHIEF EXECUTIVES,CHIEF EXECUTIVE OFFICER,N,52416,2016,"WICKLIFFE, OHIO",-81.4534492,41.6053266
39,CERTIFIED,"DURHAM SCHOOL SERVICES, LP",CHIEF EXECUTIVES,"VICE PRESIDENT, FINANCE AND OPERATIONS ANALYSIS",Y,130853,2016,"WARRENVILLE, ILLINOIS",-88.1734021,41.817807
40,DENIED,"PARALLELS, INC.",CHIEF EXECUTIVES,CHIEF EXECUTIVE OFFICER,Y,187200,2016,"RENTON, WASHINGTON",-122.2170661,47.4828776
41,CERTIFIED,CB LANSING 300 LLP,CHIEF EXECUTIVES,CHIEF OPERATING OFFICER,Y,89107,2016,"LANSING, MICHIGAN",-84.5555347,42.732535
42,CERTIFIED,"SOFTTEK INTEGRATION SYSTEMS, INC.",CHIEF EXECUTIVES,ACCOUNT DIRECTOR,Y,130853,2016,"NORTHBROOK, ILLINOIS",-87.8289548,42.1275267
43,CERTIFIED,"SPARITY, INC.",CHIEF EXECUTIVES,TECHNICAL DIRECTOR,Y,102190,2016,"ALPHARETTA, GEORGIA",-84.2940899,34.0753762
44,CERTIFIED,"ADCONION DIRECT, INC.",CHIEF EXECUTIVES,VICE PRESIDENT OF OPERATIONS,Y,197683,2016,"SOLANA BEACH, CALIFORNIA",-117.2711481,32.991155
45,CERTIFIED,MAVENCARE US INC.,CHIEF EXECUTIVES,SVP BUSINESS OPERATIONS AND DEVELOPMENT,Y,122179,2016,"NEW YORK, NEW YORK",-74.0059413,40.7127837
46,CERTIFIED,"THE CHICAGO ATHENAEUM: CENTER FOR ARCHITECTURE, DESIGN & URBAN STUDIES",CHIEF EXECUTIVES,EXECUTIVE DIRECTOR,N,54766,2016,"GALENA, ILLINOIS",NA,NA
47,CERTIFIED,MED ADVANTAGE LLC,CHIEF EXECUTIVES,CHIEF FINANCIAL OFFICER,Y,187200,2016,"BLOOMFIELD, NEW JERSEY",-74.1854209,40.8067546
48,DENIED,RANCHO LA PUERTA LLC,CHIEF EXECUTIVES,PRESIDENT,Y,197683.2,2016,"SAN DIEGO, CALIFORNIA",-117.1610838,32.715738
49,CERTIFIED,"STRATEGISM, INC.",CHIEF EXECUTIVES,CHIEF EXECUTIVE OFFICER,Y,155459.2,2016,"FREMONT, CALIFORNIA",-121.9885719,37.5482697
50,CERTIFIED,RANCHO LA PUERTA LLC,CHIEF EXECUTIVES,PRESIDENT,Y,197683.2,2016,"SAN DIEGO, CALIFORNIA",-117.1610838,32.715738
51,CERTIFIED,SPRING BRANCH COMMUNITY HEALTH CENTER,CHIEF EXECUTIVES,CHIEF MEDICAL OFFICER,Y,187200,2016,"KATY, TEXAS",-95.8243956,29.7857853
52,CERTIFIED,SPRING BRANCH COMMUNITY HEALTH CENTER,CHIEF EXECUTIVES,CHIEF MEDICAL OFFICER,Y,187200,2016,"HOUSTON, TEXAS",-95.3698028,29.7604267
53,CERTIFIED,"PAXTERRA SOLUTIONS, INC.",CHIEF EXECUTIVES,"ASSISTANT VICE PRESIDENT, BUSINESS DEVELOPMENT",Y,102190,2016,"JOHNS CREEK, GEORGIA",-84.198579,34.0289259
54,CERTIFIED,"PARALLELS, INC.",CHIEF EXECUTIVES,CHIEF EXECUTIVE OFFICER,Y,187200,2016,"RENTON, WASHINGTON",-122.2170661,47.4828776
55,CERTIFIED,VARIANTYX INC.,CHIEF EXECUTIVES,CHIEF INFORMATION OFFICER,Y,164403,2016,"ASHLAND, MASSACHUSETTS",NA,NA
56,CERTIFIED,NATURAL AMERICAN FOODS INC.,CHIEF EXECUTIVES,VICE PRESIDENT OF QUALITY,Y,145829,2016,"ONSTED, MICHIGAN",NA,NA
57,CERTIFIED,"STRATEGISM, INC.",CHIEF EXECUTIVES,CHIEF EXECUTIVE OFFICER,Y,155459.2,2016,"FREMONT, CALIFORNIA",-121.9885719,37.5482697
58,CERTIFIED,NATURAL AMERICAN FOODS INC.,CHIEF EXECUTIVES,VICE PRESIDENT OF QUALITY,Y,145829,2016,"ONSTED, MICHIGAN",NA,NA
59,CERTIFIED,"PRONTO GENERAL AGENCY, LTD.",CHIEF EXECUTIVES,PRESIDENT,Y,161179,2016,"BROWNSVILLE, TEXAS",-97.4974838,25.9017472
60,CERTIFIED,CENTRAL OCEANS USA LLC,CHIEF EXECUTIVES,PRESIDENT & CHIEF EXECUTIVE OFFICER,Y,187075,2016,"CHARLOTTESVILLE, VIRGINIA",-78.4766781,38.0293059
61,CERTIFIED-WITHDRAWN,"AMPED, INC.",CHIEF EXECUTIVES,CHIEF OPERATING OFFICER,Y,187200,2016,"SAN FRANCISCO, CALIFORNIA",-122.4194155,37.7749295
62,CERTIFIED,"SENSORHOUND, INC.",CHIEF EXECUTIVES,CHIEF EXECUTIVE OFFICER AND RESEARCH SCIENTIST,Y,76752,2016,"WEST LAFAYETTE, INDIANA",-86.9080655,40.4258686
63,CERTIFIED,"UNDER ARMOUR, INC.",CHIEF EXECUTIVES,"SR. DIRECTOR, BUSINESS PERFORMANCE MANAGEMENT",Y,137966,2016,"BALTIMORE, MARYLAND",-76.6121893,39.2903848
64,CERTIFIED,MAX PLANCK FLORIDA CORPORATION,CHIEF EXECUTIVES,CHIEF OPERATING OFFICER,Y,187200,2016,"JUPITER, FLORIDA",-80.0942087,26.9342246
65,CERTIFIED,MAX PLANCK FLORIDA CORPORATION,CHIEF EXECUTIVES,CHIEF OPERATING OFFICER,Y,226616,2016,"JUPITER, FLORIDA",-80.0942087,26.9342246
66,CERTIFIED,"FISERV AUTOMOTIVE SOLUTIONS, INC.",CHIEF EXECUTIVES,"PRESIDENT, LENDING SOLUTIONS",Y,221541,2016,"LAKE MARY, FLORIDA",-81.3178446,28.7588833
67,CERTIFIED,"HBN MEDIA, INC.",CHIEF EXECUTIVES,CHIEF OPERATING OFFICER,Y,198266,2016,"MARIETTA, GEORGIA",-84.5499327,33.952602
68,CERTIFIED,ADVENTIST HEALTH SYSTEM SUNBELT,CHIEF EXECUTIVES,REGIONAL CHIEF MEDICAL INFORMATION OFFICER,Y,221541,2016,"ALTAMONTE SPRINGS, FLORIDA",-81.3656242,28.6611089
69,CERTIFIED,CENTRAL OCEANS USA LLC,CHIEF EXECUTIVES,PRESIDENT &AMP; CHIEF EXECUTIVE OFFICER,Y,187075,2016,"CHARLOTTESVILLE, VIRGINIA",-78.4766781,38.0293059
70,WITHDRAWN,SANTA ROSA MEMORIAL HOSPITAL,CHIEF EXECUTIVES,CHIEF MEDICAL INFORMATICS OFFICER,Y,234457.6,2016,"SANTA ROSA, CALIFORNIA",-122.7140548,38.440429
71,CERTIFIED,"MAP HEALTH MANAGEMENT , LLC",CHIEF EXECUTIVES,CHIEF TECHNOLOGY OFFICER,Y,202634,2016,"MECHANICSBURG, PENNSYLVANIA",-77.0085876,40.2142565
72,CERTIFIED,SANTA ROSA MEMORIAL HOSPITAL,CHIEF EXECUTIVES,CHIEF MEDICAL INFORMATION OFFICER,Y,234457.6,2016,"SANTA ROSA, CALIFORNIA",-122.7140548,38.440429
73,CERTIFIED,BENEFUEL INC.,CHIEF EXECUTIVES,CHIEF EXECUTIVE OFFICER,Y,187200,2016,"IRVING, TEXAS",-96.9488945,32.8140177
74,CERTIFIED,RIVIAN AUTOMOTIVE LLC,CHIEF EXECUTIVES,CHIEF STRATEGY OFFICER,Y,194875,2016,"LIVONIA, MICHIGAN",-83.3527097,42.36837
75,CERTIFIED,UNIVERSITY AT ALBANY,CHIEF EXECUTIVES,DIRECTOR,Y,75293,2016,"ALBANY, NEW YORK",-73.7562317,42.6525793
76,CERTIFIED,ARICENT US INC.,CHIEF EXECUTIVES,"PRESIDENT, COMMUNICATIONS",Y,253448,2016,"NAPLES, FLORIDA",-81.7948103,26.1420358
77,WITHDRAWN,UNIVERSAL CITY STUDIOS PRODUCTION LLLP,CHIEF EXECUTIVES,"SENIOR DIRECTOR, RIDE AND SHOW",Y,178942,2016,"ORLANDO, FLORIDA",-81.3792365,28.5383355
78,CERTIFIED,"ALWAYS BELIEVE PLUS, LLC",CHIEF EXECUTIVES,CHIEF EXECUTIVE OFFICER,Y,106246.4,2016,"OAKLAND, CALIFORNIA",-122.2711137,37.8043637
79,CERTIFIED,"ZEETOGROUP, LLC",CHIEF EXECUTIVES,CHIEF EXECUTIVE OFFICER (CEO),Y,246522,2016,"SAN DIEGO, CALIFORNIA",-117.1610838,32.715738
80,WITHDRAWN,HARIBOO FOOD 2004 INC,CHIEF EXECUTIVES,VP MARKETING (IMPORT/EXPORT),Y,159369.6,2016,"HIALEAH, FLORIDA",-80.2781057,25.8575963
81,CERTIFIED,HARIBOO FOOD 2004 INC,CHIEF EXECUTIVES,VP MARKETING (IMPORT/EXPORT,Y,159369.6,2016,"HIALEAH, FLORIDA",-80.2781057,25.8575963
82,WITHDRAWN,"OAK STREET HEALTH MSO, LLC",CHIEF EXECUTIVES,CHIEF INNOVATION OFFICER & SENIOR VP OF CLINICAL SYSTEMS,Y,178776,2016,"CHICAGO, ILLINOIS",-87.6297982,41.8781136
83,CERTIFIED,"OAK STREET HEALTH MSO, LLC",CHIEF EXECUTIVES,CHIEF INNOVATION OFFICER & SENIOR VP OF CLINICAL SYSTEMS,Y,178776,2016,"CHICAGO, ILLINOIS",-87.6297982,41.8781136
84,CERTIFIED,TOTAL CIVIL CONSTRUCTION & ENGINEERING LLC,CHIEF EXECUTIVES,VICE PRESIDENT,Y,103480,2016,"LANHAM, MARYLAND",-76.8620327,38.9685112
85,CERTIFIED,FYBR LLC,CHIEF EXECUTIVES,CHIEF TECHNOLOGY OFFICER,Y,151507,2016,"CHESTERFIELD, MISSOURI",-90.5770675,38.6631083
86,CERTIFIED,TOTAL CIVIL CONSTRUCTION & ENGINEERING LLC,CHIEF EXECUTIVES,VICE PRESIDENT,Y,103480,2016,"LANHAM, MARYLAND",-76.8620327,38.9685112
87,CERTIFIED,"GREENLAM AMERICA, INC.",CHIEF EXECUTIVES,CHIEF OPERATING OFFICER,Y,159370,2016,"DORAL, FLORIDA",-80.3553302,25.8195424
88,CERTIFIED,UNIVERSAL CITY STUDIOS PRODUCTION LLLP,CHIEF EXECUTIVES,"SENIOR DIRECTOR, RIDE AND SHOW",Y,178942,2016,"ORLANDO, FLORIDA",-81.3792365,28.5383355
89,CERTIFIED,CLARKE CAPITAL PARTNERS LLC,CHIEF EXECUTIVES,MANAGING DIRECTOR - TECHNOLOGY,Y,159370,2016,"MIAMI, FLORIDA",-80.1917902,25.7616798
90,CERTIFIED,"RINA SYSTEMS, LLC",CHIEF EXECUTIVES,CHIEF FINANCIAL OFFICER,Y,155958,2016,"CINCINNATI, OHIO",-84.5120196,39.1031182
91,CERTIFIED,ZYKA FOODS INC.,CHIEF EXECUTIVES,CHIEF OPERATING OFFICER,Y,117998,2016,"CARSON, CALIFORNIA",-118.281693,33.8316745
92,DENIED,EAGLE MINE LLC,CHIEF EXECUTIVES,GENERAL MANAGER,Y,116334,2016,"CHAMPION, MICHIGAN",NA,NA
93,CERTIFIED,EAGLE MINE LLC,CHIEF EXECUTIVES,GENERAL MANAGER,Y,116334,2016,"CHAMPION, MICHIGAN",NA,NA
94,CERTIFIED,"CALIFORNIA MASTERPLANT, INC.",CHIEF EXECUTIVES,CHIEF EXECUTIVE OFFICER,Y,85051,2016,"TRACY, CALIFORNIA",-121.4252227,37.7396513
95,CERTIFIED,HARBAR LLC,CHIEF EXECUTIVES,CFO & VP BUSINESS DEVELOPMENT,Y,254821,2016,"CANTON, MASSACHUSETTS",-71.1447732,42.1584324
96,DENIED,BAKER & MCKENZIE PC,CHIEF EXECUTIVES,PRINCIPAL (ATTORNEY) AND CHAIRMAN OF THE EXECUTIVE COMMITTEE,Y,226699,2016,"CHICAGO, ILLINOIS",-87.6297982,41.8781136
97,CERTIFIED,"ARUZE GAMING AMERICA, INC.",CHIEF EXECUTIVES,VICE PRESIDENT OF CORPORATE STRATEGY,Y,82514,2016,"LAS VEGAS, NEVADA",-115.1398296,36.1699412
98,CERTIFIED,SD MANAGEMENT GROUP LLC,CHIEF EXECUTIVES,CHIEF SUSTAINABILITY OFFICER,N,17264,2016,"CHARLOTTESVILLE, VIRGINIA",-78.4766781,38.0293059
99,DENIED,"MANITOWOC FSG OPERATIONS, LLC",CHIEF EXECUTIVES,VP DIGITAL STRATEGY,Y,202363,2016,"NEW PORT RICHEY, FLORIDA",-82.7192671,28.2441768
100,CERTIFIED,"BON WORTH, INC.",CHIEF EXECUTIVES,CHIEF OPERATING OFFICER,Y,125424,2016,"HENDERSONVILLE, NORTH CAROLINA",NA,NA
101,CERTIFIED,"ASHLEY HOMESTORES, LTD.",CHIEF EXECUTIVES,"EXECUTIVE VICE PRESIDENT, BRAND DEVELOPMENT",Y,158038,2016,"BRANDON, FLORIDA",-82.2859247,27.937801
102,CERTIFIED,"BARFRESH, INC.",CHIEF EXECUTIVES,CHIEF EXECUTIVE OFFICER,Y,164050,2016,"BEVERLY HILLS, CALIFORNIA",-118.4003563,34.0736204
103,CERTIFIED,ROBERTSON FOUNDATION,CHIEF EXECUTIVES,PRESIDENT AND CHIEF EXECUTIVE OFFICER,Y,233418,2016,"NEW YORK, NEW YORK",-74.0059413,40.7127837
104,CERTIFIED,KIS USA LLC,CHIEF EXECUTIVES,VICE PRESIDENT,Y,163966,2016,"PEMBROKE PINES, FLORIDA",-80.2962555,26.007765
105,CERTIFIED,ONMOBILE USA LLC,CHIEF EXECUTIVES,SENIOR VP - GLOBAL CONTENT AND MULTI-MEDIA STRATEGY,Y,210122,2016,"SANTA MONICA, CALIFORNIA",-118.4911912,34.0194543
106,WITHDRAWN,BAKER & MCKENZIE PC,CHIEF EXECUTIVES,PRINCIPAL (ATTORNEY) AND CHAIRMAN OF THE EXECUTIVE COMMITTEE,Y,226699,2016,"CHICAGO, ILLINOIS",-87.6297982,41.8781136
107,CERTIFIED,BAKER & MCKENZIE PC,CHIEF EXECUTIVES,PRINCIPAL (ATTORNEY) AND CHAIRMAN OF THE EXECUTIVE COMMITTEE,Y,226699,2016,"CHICAGO, ILLINOIS",-87.6297982,41.8781136
108,CERTIFIED,"CORO INVESTMENTS, LP",CHIEF EXECUTIVES,"VICE PRESIDENT, USA OPERATIONS",Y,103480,2016,"RESTON, VIRGINIA",-77.3570028,38.9586307
109,CERTIFIED,"AMERICAN REFINING GROUP, INC.",CHIEF EXECUTIVES,SENIOR VICE PRESIDENT OF OPERATIONS,Y,202738,2016,"BRADFORD, PENNSYLVANIA",NA,NA
110,CERTIFIED-WITHDRAWN,MARY HITCHCOCK MEMORIAL HOSPITAL,CHIEF EXECUTIVES,VICE PRESIDENT OF FINANCE - INTEGRATED DELIVERY SYSTEM,Y,212618,2016,"LEBANON, NEW HAMPSHIRE",-72.2517569,43.6422934
111,DENIED,TMS PLUMBING AND HEATING CORP,CHIEF EXECUTIVES,OPERATIONS DIRECTOR,Y,74276.8,2016,"NEW YORK, NEW YORK",-74.0059413,40.7127837
112,CERTIFIED,"NEWLINK COMMUNICATIONS GROUP, LLC",CHIEF EXECUTIVES,VICE PRESIDENT OF BUSINESS DEVELOPMENT,Y,113090,2016,"MIAMI, FLORIDA",-80.1917902,25.7616798
113,DENIED,BENYOUCEF LLC,CHIEF EXECUTIVES,CHIEF TECHNOLOGY OFFICER,Y,72800,2016,"BATON ROUGE, LOUISIANA",-91.1403196,30.4582829
114,CERTIFIED,99TH AVENUE HOLDINGS LLC,CHIEF EXECUTIVES,CHIEF EXECUTIVE OF FITNESS MANAGEMENT,Y,187200,2016,"NEW YORK, NEW YORK",-74.0059413,40.7127837
115,CERTIFIED,"ASTELLAS PHARMA US, INC.",CHIEF EXECUTIVES,"EXECUTIVE DIRECTOR, INTERNATIONAL BUSINESS",Y,226699,2016,"NORTHBROOK, ILLINOIS",-87.8289548,42.1275267
116,CERTIFIED,STRYKER CORPORATION,CHIEF EXECUTIVES,"VP, GLOBAL IT GOVERNANCE & PERFORMANCE MEASUREMENT",Y,189862,2016,"KALAMAZOO, MICHIGAN",-85.5872286,42.2917069
117,CERTIFIED-WITHDRAWN,"MANITOWOC FSG OPERATIONS, LLC",CHIEF EXECUTIVES,VP DIGITAL STRATEGY,Y,202363,2016,"NEW PORT RICHEY, FLORIDA",-82.7192671,28.2441768
118,CERTIFIED,NORTHWELL HEALTH,CHIEF EXECUTIVES,VP INTERNATIONAL BUSINESS DEVELOPMENT,Y,252429,2016,"NEW YORK, NEW YORK",-74.0059413,40.7127837
119,CERTIFIED,HARIBO FOOD 2004 INC,CHIEF EXECUTIVES,VP MARKETING (IMPORT/EXPORT),Y,159369.6,2016,"HIALEAH, FLORIDA",-80.2781057,25.8575963
120,CERTIFIED,UGAM SOLUTIONS SEZ PVT. LTD,CHIEF EXECUTIVES,ASSISTANT VICE PRESIDENT,Y,102190,2016,"ATLANTA, GEORGIA",-84.3879824,33.7489954
121,CERTIFIED,"PREVEIL, LLC",CHIEF EXECUTIVES,CHIEF TECHNICAL OFFICER,Y,155459.2,2016,"BERKELEY, CALIFORNIA",-122.272747,37.8715926
122,CERTIFIED,AMERICAN PUBLIC TRANSPORTATION ASSOCIATION,CHIEF EXECUTIVES,CHIEF OF STAFF,Y,195728,2016,"WASHINGTON, DISTRICT OF COLUMBIA",-77.0368707,38.9071923
123,CERTIFIED,FARADAY&FUTURE INC,CHIEF EXECUTIVES,EXECUTIVE DIRECTOR,Y,256173,2016,"GARDENA, CALIFORNIA",-118.3089624,33.8883487
124,CERTIFIED,MILK SPECIALTIES GLOBAL,CHIEF EXECUTIVES,"VICE PRESIDENT, INTERNATIONAL SALES, HUMAN NUTRITION",Y,146300,2016,"EDEN PRAIRIE, MINNESOTA",-93.470786,44.8546856
125,DENIED,MILK SPECIALTIES GLOBAL,CHIEF EXECUTIVES,"VICE PRESIDENT, INTERNATIONAL SALES, HUMAN NUTRITION",Y,146300,2016,"EDEN PRAIRIE, MINNESOTA",-93.470786,44.8546856
126,CERTIFIED-WITHDRAWN,"HARGRAY COMMUNICATIONS GROUP, INC.",CHIEF EXECUTIVES,"SR. VICE PRESIDENT, TECHNOLOGY & OPERATIONS",Y,145122,2016,"HILTON HEAD ISLAND, SOUTH CAROLINA",-80.752608,32.216316
127,CERTIFIED,DIAMONDS DIRECT USA INC,CHIEF EXECUTIVES,PRESIDENT/CEO,Y,187200,2016,"CHARLOTTE, NORTH CAROLINA",-80.8431267,35.2270869
128,CERTIFIED,"NATURAL POWER AND ENERGY, LLC",CHIEF EXECUTIVES,CHIEF EXECUTIVE OFFICER,Y,213200,2016,"SCOTTSDALE, ARIZONA",-111.9260519,33.4941704
129,CERTIFIED,"PREVEIL, LLC",CHIEF EXECUTIVES,CHIEF TECHNICAL OFFICER,Y,155459.2,2016,"BERKELEY, CALIFORNIA",-122.272747,37.8715926
130,CERTIFIED,RIGHTSIDE OPERATING CO,CHIEF EXECUTIVES,"ELECTRICAL ENGINEER, CHIEF TECHNOLOGY OFFICER",Y,229133,2016,"KIRKLAND, WASHINGTON",-122.2059833,47.6768927
131,CERTIFIED,ENGINE CONTROL SYSTEMS LIMITED,CHIEF EXECUTIVES,VICE PRESIDENT OF RESEARCH AND ENGINEERING,Y,106933,2016,"OXNARD, CALIFORNIA",-119.1770516,34.1975048
132,CERTIFIED,"SHIRE PHARMACEUTICALS, LLC",CHIEF EXECUTIVES,CHIEF EXECUTIVE OFFICER,Y,254821,2016,"LEXINGTON, MASSACHUSETTS",-71.2289641,42.4430372
133,CERTIFIED-WITHDRAWN,TI GROUP AUTOMOTIVE SYSTEMS L.L.C.,CHIEF EXECUTIVES,DIRECTOR INVESTOR RELATIONS,Y,191090,2016,"AUBURN HILLS, MICHIGAN",-83.2341028,42.6875323
134,CERTIFIED,"FINCH PAPER, LLC",CHIEF EXECUTIVES,"VICE PRESIDENT, FORESTRY & WOOD PROCUREMENT",Y,142210,2016,"NORTHUMBERLAND, NEW YORK",NA,NA
135,CERTIFIED,"FINCH PAPER, LLC",CHIEF EXECUTIVES,"VICE PRESIDENT, FORESTRY & WOOD PROCUREMENT",Y,145038,2016,"GLENS FALLS, NEW YORK",NA,NA
136,CERTIFIED,"ADVANCED PRACTICE STRATEGIES, INC.",CHIEF EXECUTIVES,STRATEGIC ADVISOR TO THE CEO (CHIEF EXECUTIVE),Y,164403,2016,"BOSTON, MASSACHUSETTS",-71.0588801,42.3600825
137,CERTIFIED,"PROFESSIONAL TOOL GRINDING, INC.",CHIEF EXECUTIVES,VP OF MANUFACTURING,Y,111842,2016,"SOUTH EASTON, MASSACHUSETTS",NA,NA
138,CERTIFIED,TMS PLUMBING AND HEATING CORP,CHIEF EXECUTIVES,OPERATIONS DIRECTOR,Y,74276.8,2016,"NEW YORK, NEW YORK",-74.0059413,40.7127837
139,CERTIFIED,"CASTLE BRANCH, INC.",CHIEF EXECUTIVES,PRESIDENT,Y,209539,2016,"WILMINGTON, NORTH CAROLINA",-77.9447102,34.2257255
140,CERTIFIED,LIGHT & STAR USA INC,CHIEF EXECUTIVES,CHIEF FINANACIAL OFFICER,N,70000,2016,"NEW YORK, NEW YORK",-74.0059413,40.7127837
141,CERTIFIED,THEODORE R & VIVIAN M JOHNSON SCHOLARSHIP FOUND,CHIEF EXECUTIVES,PRESIDENT,Y,218629,2016,"WEST PALM BEACH, FLORIDA",-80.0533746,26.7153424
142,CERTIFIED,ASCENTIUM CORPORATION,CHIEF EXECUTIVES,CHIEF EXECUTIVE OFFICER/CHIEF TECHNOLOGY OFFICER,Y,229133,2016,"SEATTLE, WASHINGTON",-122.3320708,47.6062095
143,CERTIFIED,"HES MANAGEMENT AND SERVICES, LLC",CHIEF EXECUTIVES,CFO CONSTRUCTION AND HOTEL MANAGEMENT,Y,205629,2016,"MIAMI, FLORIDA",-80.1917902,25.7616798
144,CERTIFIED,"CALVARY DESIGN TEAM, INC.",CHIEF EXECUTIVES,PRESIDENT,Y,212597,2016,"WEBSTER, NEW YORK",-77.4299939,43.2122851
145,CERTIFIED,"GLOBAL CONVERGENCE, INC.",CHIEF EXECUTIVES,SENIOR VICE PRESIDENT OF GLOBAL SERVICE DELIVERY,Y,113693,2016,"OLDSMAR, FLORIDA",-82.6650992,28.0341847
146,CERTIFIED,E*TRADE FINANCIAL CORPORATION,CHIEF EXECUTIVES,"CHIEF OPERATING OFFICER, IT INFRASTRUCTURE",Y,246314,2016,"ALPHARETTA, CALIFORNIA",NA,NA
147,CERTIFIED-WITHDRAWN,"AUTOLIV ASP, INC.",CHIEF EXECUTIVES,VICE PRESIDENT ENGINEERING,Y,191090,2016,"SOUTHFIELD, MICHIGAN",-83.2218731,42.4733688
148,CERTIFIED,EXCLUSIVE RESORTS LLC,CHIEF EXECUTIVES,FULL-TIME CHAIRMAN OF THE BOARD,Y,187200,2016,"DENVER, COLORADO",-104.990251,39.7392358
149,CERTIFIED,"BON WORTH, INC.",CHIEF EXECUTIVES,CHIEF OPERATING OFFICER,Y,125424,2016,"HENDERSONVILLE, NORTH CAROLINA",NA,NA
150,CERTIFIED,"UT-BATTELLE, LLC (OAK RIDGE NATIONAL LABORATORY)",CHIEF EXECUTIVES,"DIRECTOR, BIOLOGY AND SOFT MATTER DIVISION",Y,178859,2016,"OAK RIDGE, TENNESSEE",-84.2696449,36.0103561
151,CERTIFIED,"ACME INTERNATIONAL, LLC",CHIEF EXECUTIVES,VICE PRESIDENT,Y,118061,2016,"SUNRISE, FLORIDA",-80.256595,26.1669711
152,CERTIFIED,INTUIT INC.,CHIEF EXECUTIVES,DIRECTOR CORPORATE STRATEGY,Y,187200,2016,"MOUNTAIN VIEW, CALIFORNIA",-122.0838511,37.3860517
153,CERTIFIED,STEREN ELECTRONICS INTERNATIONAL LLC,CHIEF EXECUTIVES,"VICE PRESIDENT, FINANCE",Y,148824,2016,"SAN DIEGO, CALIFORNIA",-117.1610838,32.715738
154,CERTIFIED,PARKLOCO INC.,CHIEF EXECUTIVES,CHIEF EXECUTIVE OFFICER,Y,119184,2016,"BOSTON, MASSACHUSETTS",-71.0588801,42.3600825
155,CERTIFIED-WITHDRAWN,"II STANLEY CO., INC.",CHIEF EXECUTIVES,CHIEF FINANCIAL OFFICER,Y,95160,2016,"BATTLE CREEK, MICHIGAN",-85.1797142,42.3211522
156,CERTIFIED,OCTAL CORPORATION,CHIEF EXECUTIVES,PRESIDENT,Y,233418,2016,"TEANECK, NEW JERSEY",-74.0116536,40.8932469
157,CERTIFIED,GLOBAL EXPERIENCE SPECIALISTS,CHIEF EXECUTIVES,GENERAL MANAGER EXECUTIVE,Y,177528,2016,"LAS VEGAS, NEVADA",-115.1398296,36.1699412
158,CERTIFIED,FOSS WATERWAY SEAPORT,CHIEF EXECUTIVES,EXECUTIVE DIRECTOR,Y,89690,2016,"TACOMA, WASHINGTON",-122.4442906,47.2528768
159,DENIED,X-DRILL INC,CHIEF EXECUTIVES,"VICE PRESIDENT, QUALITY, HEALTH & SAFETY",Y,187200,2016,"HOUSTON, TEXAS",-95.3698028,29.7604267
160,CERTIFIED,"SIGMA-TAU PHARMACEUTICALS, INC.",CHIEF EXECUTIVES,"VICE PRESIDENT COMMERICAL OPERATIONS, PHARMACEUTICAL PRODUCT",Y,193170,2016,"GAITHERSBURG, MARYLAND",-77.2013705,39.1434406
161,CERTIFIED,GASTON J GLOCK STYLE LP,CHIEF EXECUTIVES,CHIEF EXECUTIVE OFFICER,Y,102190.4,2016,"SMYRNA, GEORGIA",-84.5143761,33.8839926
162,CERTIFIED,"T-LIGO USA, LLC",CHIEF EXECUTIVES,EXECUTIVE DIRECTOR,Y,136323.2,2016,"ORLANDO, FLORIDA",-81.3792365,28.5383355
163,CERTIFIED,GETMYRX INC.,CHIEF EXECUTIVES,CHIEF EXECUTIVE OFFICER,Y,159370,2016,"MIAMI, FLORIDA",-80.1917902,25.7616798
164,CERTIFIED,"VIMTREK, LLC",CHIEF EXECUTIVES,"EXECUTIVE VICE PRESIDENTS, SALES",Y,102190,2016,"NORCROSS, GEORGIA",-84.2135309,33.9412127
165,CERTIFIED,BIZINSURE LLC,CHIEF EXECUTIVES,CHIEF EXECUTIVE OFFICER,Y,106246,2016,"OAKLAND, CALIFORNIA",-122.2711137,37.8043637
166,CERTIFIED,"MORRISON USA, LLC",CHIEF EXECUTIVES,CHIEF BUSINESS DEVELOPING OFFICER,Y,113090,2016,"MIAMI, FLORIDA",-80.1917902,25.7616798
167,CERTIFIED,"OKINAWA PREFECTURE DC OFFICE, INC.",CHIEF EXECUTIVES,PRESIDENT,Y,103480,2016,"WASHINGTON, DISTRICT OF COLUMBIA",-77.0368707,38.9071923
168,CERTIFIED,LOS COMALES INC,CHIEF EXECUTIVES,CHIEF FINANCIAL OFFICER,Y,90875,2016,"GREELEY, COLORADO",-104.7091322,40.4233142
169,CERTIFIED,KENDALL HEALTHCARE PROPERTIES,CHIEF EXECUTIVES,CHIEF OPERATING OFFICER,Y,113090,2016,"MIAMI, FLORIDA",-80.1917902,25.7616798
170,CERTIFIED,HONEY SCIENCE CORPORATION,CHIEF EXECUTIVES,CHIEF TECHNOLOGY OFFICER,Y,117998,2016,"LOS ANGELES, CALIFORNIA",-118.2436849,34.0522342
171,CERTIFIED-WITHDRAWN,"HEART TEST LABORATORIES, INC.",CHIEF EXECUTIVES,EXECUTIVE CHAIRMAN/CFO,Y,118290,2016,"WESTLAKE, TEXAS",-97.1950138,32.991235
172,CERTIFIED,"EARGO, INC.",CHIEF EXECUTIVES,CHIEF OPERATING OFFICER,Y,187200,2016,"MOUNTAIN VIEW, CALIFORNIA",-122.0838511,37.3860517
173,CERTIFIED,WORLD TRADE CENTERS ASSOCIATION (WTCA),CHIEF EXECUTIVES,CHIEF EXECUTIVE OFFICER (CHIEF EXECUTIVES),Y,187200,2016,"NEW YORK, NEW YORK",-74.0059413,40.7127837
174,CERTIFIED,PI CHARGING INC.,CHIEF EXECUTIVES,CHIEF EXECUTIVE OFFICER,Y,215862,2016,"MENLO PARK, CALIFORNIA",-122.1817252,37.4529598
175,CERTIFIED,"EXYN TECHNOLOGIES, INC.",CHIEF EXECUTIVES,CHIEF EXECUTIVE OFFICER,Y,187200,2016,"PHILADELPHIA, PENNSYLVANIA",-75.1652215,39.9525839
176,CERTIFIED,FMR LLC,CHIEF EXECUTIVES,"EXECUTIVE VICE PRESIDENT OF FINANCE, PLANNING AND ANALYSIS",Y,254821,2016,"BOSTON, MASSACHUSETTS",-71.0588801,42.3600825
177,CERTIFIED,BANDY CANYON RANCH CORP,CHIEF EXECUTIVES,CHIEF EXECUTIVE OFFICER,Y,99986,2016,"ESCONDIDO, CALIFORNIA",-117.086421,33.1192068
178,DENIED,CARMA TECHOLOGY CORPORATION,CHIEF EXECUTIVES,CHIEF FINANCIAL OFFICER,Y,187200,2016,"SAN FRANCISCO, CALIFORNIA",-122.4194155,37.7749295
179,CERTIFIED,"DIGITAL REASONING SYSTEMS, INC.",CHIEF EXECUTIVES,CHIEF PRODUCT OFFICER,Y,210933,2016,"FRANKLIN, TENNESSEE",-86.8688899,35.9250637
180,CERTIFIED,"MEDICUS MANAGEMENT SERVICES, LLC",CHIEF EXECUTIVES,EXECUTIVE VICE PRESIDENT,N,58926,2016,"CHESTERFIELD, MISSOURI",-90.5770675,38.6631083
181,DENIED,WC INC.,CHIEF EXECUTIVES,GLOBAL BUSINESS DEVELOPMENT EXECUTIVE,Y,163000,2016,"OXNARD, CALIFORNIA",-119.1770516,34.1975048
182,CERTIFIED,ALPHAEON CORPORATION,CHIEF EXECUTIVES,VICE PRESIDENT CANADA & LATIN AMERICA,Y,230700,2016,"IRVINE, CALIFORNIA",-117.7946942,33.6839473
183,CERTIFIED,HENNIGES AUTOMOTIVE NORTH AMERICA INC.,CHIEF EXECUTIVES,"VICE PRESIDENT, SALES & MARKETING, GLOBAL SEALING SYSTEMS",Y,146661,2016,"AUBURN HILLS, MICHIGAN",-83.2341028,42.6875323
184,CERTIFIED,WC INC.,CHIEF EXECUTIVES,GLOBAL BUSINESS DEVELOPMENT EXECUTIVE,Y,163000,2016,"OXNARD, CALIFORNIA",-119.1770516,34.1975048
185,CERTIFIED,"FUERST GROUP, INC.",CHIEF EXECUTIVES,EXECUTIVE VICE PRESIDENT OF GLOBAL VALUE SUPPLY CHAIN,Y,202946,2016,"MENLO PARK, CALIFORNIA",-122.1817252,37.4529598
186,CERTIFIED,"ROUSH MANAGEMENT, L.L.C.",CHIEF EXECUTIVES,ENTERTAINMENT SYSTEMS ENGINEERING (ESE) DIRECTOR,Y,150779,2016,"LIVONIA, MICHIGAN",-83.3527097,42.36837
187,CERTIFIED,"SWIFT BEEF COMPANY, A JBS USA SUBSIDIARY",CHIEF EXECUTIVES,HEAD OF STRATEGY,Y,143458,2016,"GREELEY, COLORADO",-104.7091322,40.4233142
188,CERTIFIED,"DRS INDUSTRIES, INC.",CHIEF EXECUTIVES,PRESIDENT/CHIEF EXECUTIVE OFFICER,Y,132184,2016,"HOLLAND, OHIO",NA,NA
189,CERTIFIED,"SENTE ADVISORY SERVICES, INC.",CHIEF EXECUTIVES,"PRESIDENT, ISRAEL BUSINESS DIVISION",Y,82930,2016,"CHICAGO IL, ILLINOIS",NA,NA
190,CERTIFIED,"MOON RIVER FOODS, INC.",CHIEF EXECUTIVES,VICE PRESIDENT OF OPERATIONS,N,45240,2016,"INDIANOLA, MISSISSIPPI",NA,NA
191,CERTIFIED,"BOOKMD, INC.",CHIEF EXECUTIVES,CHIEF EXECUTIVE OFFICER,Y,117998.4,2016,"LOS ANGELES, CALIFORNIA",-118.2436849,34.0522342
192,CERTIFIED,"UFI FILTERS USA, INC.",CHIEF EXECUTIVES,CHIEF OPERATING OFFICER - AMERICAS,Y,235518,2016,"TROY, MICHIGAN",-83.1497751,42.6064095
193,CERTIFIED,"OMNIA MEDIA, INC.",CHIEF EXECUTIVES,CHIEF EXECUTIVE OFFICER,Y,256173,2016,"LOS ANGELES, CALIFORNIA",-118.2436849,34.0522342
194,CERTIFIED-WITHDRAWN,HAWAII ISLAND AIR INC.,CHIEF EXECUTIVES,CHIEF OPERATING OFFICER,Y,202530,2016,"HONOLULU, HAWAII",-157.8583333,21.3069444
195,CERTIFIED,INTERNET CORPORATION FOR ASSIGNED NAMES AND NUMBERS,CHIEF EXECUTIVES,PRESIDENT AND CHIEF EXECUTIVE OFFICER,Y,256173,2016,"LOS ANGELES, CALIFORNIA",-118.2436849,34.0522342
196,CERTIFIED,"SENSORHOUND, INC.",CHIEF EXECUTIVES,CHIEF EXECUTIVE OFFICER AND RESEARCH SCIENTIST,Y,76752,2016,"WEST LAFAYETTE, INDIANA",-86.9080655,40.4258686
197,CERTIFIED,"DELAWARE CONSULTING US, INC.",CHIEF EXECUTIVES,OPEN TEXT STREAMSERVE CONSULTING MANAGER,Y,102190,2016,"ALPHARETTA, GEORGIA",-84.2940899,34.0753762
198,CERTIFIED,"AVGOL AMERICA, INC.",CHIEF EXECUTIVES,CHIEF OPERATING OFFICER,Y,244774,2016,"MOCKSVILLE, NORTH CAROLINA",NA,NA
199,DENIED,"SNAPRAYS, LLC",CHIEF EXECUTIVES,CHIEF EXECUTIVE OFFICER,N,66373,2016,"PROVO, UTAH",-111.6585337,40.2338438
200,CERTIFIED-WITHDRAWN,"ALEVO, INC",CHIEF EXECUTIVES,CHIEF OPERATING OFFICER,Y,187200,2016,"CONCORD, NORTH CAROLINA",-80.579511,35.4087517
201,CERTIFIED,CRMIT SOLUTIONS INC,CHIEF EXECUTIVES,VICE PRESIDENT,Y,102190,2016,"NORCROSS, GEORGIA",-84.2135309,33.9412127
202,CERTIFIED,"PURCH GROUP, INC.",CHIEF EXECUTIVES,SENIOR VICE-PRESIDENT & GENERAL MANAGER,Y,156104,2016,"OGDEN, UTAH",-111.9738304,41.223
203,CERTIFIED,AERAS,CHIEF EXECUTIVES,CHIEF EXECUTIVE OFFICER,Y,187200,2016,"ROCKVILLE, MARYLAND",-77.1527578,39.0839973
204,CERTIFIED,"AVGOL AMERICA, INC.",CHIEF EXECUTIVES,VICE PRESIDENT OF PURCHASING AND LOGISTICS,Y,155397,2016,"MOCKSVILLE, NORTH CAROLINA",NA,NA
205,CERTIFIED,NEW SIGHT DEVICES CORP.,CHIEF EXECUTIVES,CHIEF EXECUTIVE OFFICER,Y,151611.2,2016,"WILMINGTON, DELAWARE",-75.5397878,39.7390721
206,CERTIFIED,HOTEL CONNECTIONS INC.,CHIEF EXECUTIVES,CHIEF OPERATIONS OFFICER,Y,205629,2016,"MIAMI, FLORIDA",-80.1917902,25.7616798
207,CERTIFIED,CURSELL LLC,CHIEF EXECUTIVES,CHIEF OPERATING OFFICER,Y,118061,2016,"HALLANDALE, FLORIDA",-80.148379,25.9812024
208,CERTIFIED,CURSELL LLC,CHIEF EXECUTIVES,CHIEF OPERATING OFFICER (COO),Y,118061,2016,"HALLANDALE BEACH, FLORIDA",-80.148379,25.9812024
209,CERTIFIED,"AHOLD USA, INC.",CHIEF EXECUTIVES,DIVISION PRESIDENT,Y,241842,2016,"HYATTSVILLE, MARYLAND",-76.9455301,38.9559442
210,CERTIFIED,"HEALTHCARE PARTNERS, LLC",CHIEF EXECUTIVES,"VICE PRESIDENT, STRATEGY & SPECIAL PROJECTS",Y,187200,2016,"DENVER, COLORADO",-104.990251,39.7392358
211,WITHDRAWN,"ARTEX, INC.",CHIEF EXECUTIVES,CHIEF OPERATING OFFICER,Y,195728,2016,"LANDOVER DRIVE, MARYLAND",NA,NA
212,CERTIFIED,"WORLDVIZ, INC.",CHIEF EXECUTIVES,PRESIDENT,Y,109387,2016,"SANTA BARBARA, CALIFORNIA",-119.6981901,34.4208305
213,CERTIFIED,ALTISOURCE ASSET MANAGEMENT CORPORATION,CHIEF EXECUTIVES,CHIEF FINANCIAL OFFICER,Y,180502,2016,"CHRISTIANSTED, NA",-64.7031977,17.7466397
214,CERTIFIED,PARKLOCO INC.,CHIEF EXECUTIVES,CHIEF MANAGEMENT OFFICER,Y,119184,2016,"BOSTON, MASSACHUSETTS",-71.0588801,42.3600825
215,DENIED,SIMCRO INC.,CHIEF EXECUTIVES,PRESIDENT,Y,202072,2016,"LAWRENCE, KANSAS",-95.2352501,38.9716689
216,DENIED,"PEARTRACK SECURITY SYSTEMS, INC.",CHIEF EXECUTIVES,EXECUTIVE DIRECTOR,Y,117998,2016,"SANTA MONICA, CALIFORNIA",-118.4911912,34.0194543
217,CERTIFIED,AUTOPODS INC,CHIEF EXECUTIVES,CHIEF EXECUTIVE OFFICER,Y,94577.6,2016,"PITTSBURGH, PENNSYLVANIA",-79.9958864,40.4406248
218,CERTIFIED,"TELEMUNDO MEDIA, LLC",CHIEF EXECUTIVES,SVP TALENT MANAGEMENT,Y,251909,2016,"MIAMI, FLORIDA",-80.1917902,25.7616798
219,CERTIFIED,"HYPERLOOP TECHNOLOGIES, INC.",CHIEF EXECUTIVES,"VICE PRESIDENT, BUSINESS DEVELOPMENT",Y,210122,2016,"LOS ANGELES, CALIFORNIA",-118.2436849,34.0522342
220,CERTIFIED,SOFTMARKETING CORPORATION,CHIEF EXECUTIVES,BUSINESS MANAGER,Y,113090,2016,"MIAMI, FLORIDA",-80.1917902,25.7616798
221,CERTIFIED,CIRCUITRONIX LLC,CHIEF EXECUTIVES,CHIEF OPERATING OFFICER,Y,118061,2016,"FORT LAUDERDALE, FLORIDA",-80.1373174,26.1224386
222,WITHDRAWN,"FRANKE FOODSERVICE SYSTEMS, INC.",CHIEF EXECUTIVES,PRESIDENT OF SOLUTIONS,Y,210933,2016,"SMYRNA, TENNESSEE",-86.5186045,35.9828412
223,CERTIFIED,"FRANKE FOODSERVICE SOLUTIONS, INC.",CHIEF EXECUTIVES,PRESIDENT OF SOLUTIONS,Y,210933,2016,"SMYRNA, TENNESSEE",-86.5186045,35.9828412
224,CERTIFIED,LED LINEAR USA INC,CHIEF EXECUTIVES,PRESIDENT,Y,99070,2016,"NIAGARA FALLS, NEW YORK",-79.0377388,43.0962143
225,CERTIFIED,"FRANKE FOODSERVICE SOLUTIONS, INC.",CHIEF EXECUTIVES,PRESIDENT OF SOLUTIONS,Y,210933,2016,"SMYRNA, TENNESSEE",-86.5186045,35.9828412
226,CERTIFIED,STEREN ELECTRONICS INTERNATIONAL LLC,CHIEF EXECUTIVES,"VICE PRESIDENT, FINANCE",Y,148824,2016,"SAN DIEGO, CALIFORNIA",-117.1610838,32.715738
227,CERTIFIED,PARKLOCO INC.,CHIEF EXECUTIVES,CHIEF MARKETING OFFICER,Y,119184,2016,"BOSTON, MASSACHUSETTS",-71.0588801,42.3600825
228,CERTIFIED,CALIFORNIA GALVANIZING AND STEEL STRUCTURES INC.,CHIEF EXECUTIVES,CHIEF EXECUTIVE OFFICER/CHIEF FINANCIAL OFFICER,Y,99986,2016,"CHULA VISTA, CALIFORNIA",-117.0841955,32.6400541
229,WITHDRAWN,"FRANKE FOODSERVICE SOLUTIONS, INC.",CHIEF EXECUTIVES,PRESIDENT OF SOLUTIONS,Y,210933,2016,"SMYRNA, TENNESSEE",-86.5186045,35.9828412
230,CERTIFIED,CARMA TECHOLOGY CORPORATION,CHIEF EXECUTIVES,CHIEF FINANCIAL OFFICER,Y,187200,2016,"SAN FRANCISCO, CALIFORNIA",-122.4194155,37.7749295
231,WITHDRAWN,"TMX FINANCE, LLC",CHIEF EXECUTIVES,VP OF VEHICLE REMARKETING,Y,153358,2016,"SAVANNAH, GEORGIA",-81.0998342,32.0835407
232,CERTIFIED,OPUS DYNAMIC LLC,CHIEF EXECUTIVES,"SENIOR VICE PRESIDENT, HEAD OF SERVICE DESIGN & MOBILIZATION",Y,235518,2016,"BEVERLY HILLS, MICHIGAN",NA,NA
233,CERTIFIED,"WEEKS COMMUNICATIONS, INC.",CHIEF EXECUTIVES,VP  OF WEST COAST AND  INTERNATIONAL MARKET OPERATIONS,Y,139214,2016,"INDIANAPOLIS, INDIANA",-86.158068,39.768403
234,CERTIFIED,SIMCRO INC.,CHIEF EXECUTIVES,PRESIDENT,Y,202072,2016,"LAWRENCE, KANSAS",-95.2352501,38.9716689
235,DENIED,"SNAPRAYS, LLC",CHIEF EXECUTIVES,CHIEF EXECUTIVE OFFICER,N,66373,2016,"PROVO, UTAH",-111.6585337,40.2338438
236,DENIED,"SNAPRAYS, LLC",CHIEF EXECUTIVES,CHIEF EXECUTIVE OFFICER,N,66373,2016,"PROVO, UTAH",-111.6585337,40.2338438
237,WITHDRAWN,X-DRILL INC,CHIEF EXECUTIVES,"VICE PRESIDENT, QUALITY, HEALTH & SAFETY",Y,187200,2016,"HOUSTON, TEXAS",-95.3698028,29.7604267
238,DENIED,"SNAPRAYS, LLC",CHIEF EXECUTIVES,CHIEF EXECUTIVE OFFICER,N,66373,2016,"PROVO, UTAH",-111.6585337,40.2338438
239,DENIED,"SNAPRAYS, LLC",CHIEF EXECUTIVES,CHIEF EXECUTIVE OFFICER,N,66373,2016,"PROVO, UTAH",-111.6585337,40.2338438
240,DENIED,"SNAPRAYS, LLC",CHIEF EXECUTIVES,CHIEF EXECUTIVE OFFICER,N,66373,2016,"VINEYARD, UTAH",NA,NA
241,CERTIFIED,H & L INNOVATIONS LLC,CHIEF EXECUTIVES,CFO AND INTERNATIONAL RELATIONS MANAGER,N,64875,2016,"MADISON, WISCONSIN",-89.4012302,43.0730517
242,DENIED,"SNAPRAYS, LLC",CHIEF EXECUTIVES,CHIEF EXECUTIVE OFFICER,N,66373,2016,"VINEYARD, UTAH",NA,NA
243,CERTIFIED,X-DRILL INC,CHIEF EXECUTIVES,"VICE PRESIDENT, QUALITY, HEALTH & SAFETY",Y,187200,2016,"HOUSTON, TEXAS",-95.3698028,29.7604267
244,DENIED,"SNAPRAYS, LLC",CHIEF EXECUTIVES,CHIEF EXECUTIVE OFFICER,N,66373,2016,"VINEYARD, UTAH",NA,NA
245,CERTIFIED,SOFTMARKETING CORPORATION,CHIEF EXECUTIVES,BUSINESS MANAGER,Y,113090,2016,"MIAMI, FLORIDA",-80.1917902,25.7616798
246,CERTIFIED,"PEARTRACK SECURITY SYSTEMS, INC.",CHIEF EXECUTIVES,EXECUTIVE DIRECTOR,Y,117998,2016,"SANTA MONICA, CALIFORNIA",-118.4911912,34.0194543
247,CERTIFIED,"SNAPRAYS, LLC",CHIEF EXECUTIVES,CHIEF EXECUTIVE OFFICER,N,66373,2016,"VINEYARD, UTAH",NA,NA
248,CERTIFIED,"SNAPRAYS, LLC",CHIEF EXECUTIVES,CHIEF EXECUTIVE OFFICER,N,66373,2016,"PROVO, UTAH",-111.6585337,40.2338438
249,CERTIFIED,"PRONTO GENERAL AGENCY, LTD.",CHIEF EXECUTIVES,PRESIDENT,Y,161179,2016,"BROWNSVILLE, TEXAS",-97.4974838,25.9017472
250,CERTIFIED,"SNAPRAYS, LLC",CHIEF EXECUTIVES,CHIEF EXECUTIVE OFFICER,N,66373,2016,"VINEYARD, UTAH",NA,NA
251,CERTIFIED,"SNAPRAYS, LLC",CHIEF EXECUTIVES,CHIEF EXECUTIVE OFFICER,N,66373,2016,"PROVO, UTAH",-111.6585337,40.2338438
252,CERTIFIED,"SNAPRAYS, LLC",CHIEF EXECUTIVES,CHIEF EXECUTIVE OFFICER,N,66373,2016,"VINEYARD, UTAH",NA,NA
253,CERTIFIED,ZENEDGE INC,CHIEF EXECUTIVES,CHIEF OPERATING OFFICER,Y,113089.6,2016,"AVENTURA, FLORIDA",-80.1392121,25.9564812
254,CERTIFIED,"CMG WORLDWIDE, INC.",CHIEF EXECUTIVES,CHIEF OPERATING OFFICER,Y,88338,2016,"INDIANAPOLIS, INDIANA",-86.158068,39.768403
255,CERTIFIED,SYSTEM LOGISTICS CORPORATION,CHIEF EXECUTIVES,CHIEF EXECUTIVE OFFICER,Y,92518,2016,"GRAND RAPIDS, MICHIGAN",-85.6680863,42.9633599
256,CERTIFIED,"AGLYTIX, INC.",CHIEF EXECUTIVES,CHIEF OPERATING OFFICER,Y,174408,2016,"MANKATO, MINNESOTA",-93.9993996,44.1635775
257,CERTIFIED,BENEFUEL INC.,CHIEF EXECUTIVES,"EXECUTIVE, FINANCIAL DEVELOPMENT",Y,187200,2016,"IRVING, TEXAS",-96.9488945,32.8140177
258,CERTIFIED,"PUTZMEISTER AMERICA, INC.",CHIEF EXECUTIVES,"GENERAL MANAGER-INDUSTRIAL PUMPS AND SYSTEMS, U.S. AND CHINA",N,65811,2016,"STURTEVANT, WISCONSIN",-87.8945229,42.6980749
259,CERTIFIED,"EICA MANAGEMENT, LLC",CHIEF EXECUTIVES,CHIEF EXECUTIVE OFFICER,Y,113090,2016,"MIAMI SPRINGS, FLORIDA",NA,NA
260,CERTIFIED-WITHDRAWN,CELGENE CORPORATION,CHIEF EXECUTIVES,"PRESIDENT, WORLDWIDE MARKETS",Y,187200,2016,"SUMMIT, NEW JERSEY",-74.3646122,40.7146376
261,CERTIFIED,TOTAL CIVIL CONSTRUCTION & ENGINEERING LLC,CHIEF EXECUTIVES,VICE PRESIDENT OF CORPORATE STRATEGY,Y,103480,2016,"MANASSAS, VIRGINIA",-77.4752667,38.7509488
262,CERTIFIED,"START INTERNATIONAL, INC.",CHIEF EXECUTIVES,EXECUTIVE DIRECTOR,Y,149594,2016,"WASHINGTON, DISTRICT OF COLUMBIA",-77.0368707,38.9071923
263,CERTIFIED,"OFF CENTER RESTAURANT GROUP, LLC",CHIEF EXECUTIVES,CHIEF EXECUTIVE OFFICER,Y,113090,2016,"MIAMI, FLORIDA",-80.1917902,25.7616798
264,CERTIFIED,OMA SHANTI INC.,CHIEF EXECUTIVES,CHIEF FINANCIAL OFFICER,Y,178776,2016,"CHICAGO, ILLINOIS",-87.6297982,41.8781136
265,CERTIFIED,"PINDROP SECURITY, INC.",CHIEF EXECUTIVES,CHIEF EXECUTIVE OFFICER,Y,150238,2016,"ATLANTA, GEORGIA",-84.3879824,33.7489954
266,CERTIFIED,"MILLENNIUM ADVISORS, LLC",CHIEF EXECUTIVES,DIRECTOR ETF TRADING & CREDIT MARKETS,Y,187199,2016,"CHARLOTTE, NORTH CAROLINA",-80.8431267,35.2270869
267,CERTIFIED,MYCHILD INC.,CHIEF EXECUTIVES,CEO & SYSTEMS MANAGER,Y,82930,2016,"CHICAGO, ILLINOIS",-87.6297982,41.8781136
268,CERTIFIED,"KONCERT IT TECHNOLOGY SOLUTIONS, LLC",CHIEF EXECUTIVES,E-COMMERCE DIRECTOR,Y,252158.4,2016,"CINCINNATI, OHIO",-84.5120196,39.1031182
269,CERTIFIED,SEMPRA LNG AND MIDSTREAM LLC,CHIEF EXECUTIVES,VICE PRESIDENT OF BUSINESS ORIGINATION,Y,197683,2016,"SAN DIEGO, CALIFORNIA",-117.1610838,32.715738
270,CERTIFIED,"CHARTA GLOBAL, INC.",CHIEF EXECUTIVES,MANAGING DIRECTOR/MARKETING - AMERICAS,Y,198266,2016,"ATLANTA, GEORGIA",-84.3879824,33.7489954
271,CERTIFIED,"SOFTTEK INTEGRATION SYSTEMS, INC.",CHIEF EXECUTIVES,ACCOUNT DIRECTOR,Y,130853,2016,"CHICAGO, ILLINOIS",-87.6297982,41.8781136
272,CERTIFIED,SELUX CORPORATION,CHIEF EXECUTIVES,CEO,Y,160722,2016,"HIGHLAND, NEW YORK",NA,NA
273,DENIED,RESONANCE GLOBAL COMPLIANCE LLC,CHIEF EXECUTIVES,CHIEF TECHNOLOGY OFFICER- WIRELESS COMMUNICATION DEVICE,Y,78000,2016,"BATON ROUGE, LOUISIANA",-91.1403196,30.4582829
274,CERTIFIED,CELGENE CORPORATION,CHIEF EXECUTIVES,"SVP, WORLDWIDE MARKETS, I&I",Y,187200,2016,"SUMMIT, NEW JERSEY",-74.3646122,40.7146376
275,CERTIFIED,"THE MIHALIK GROUP, LLC",CHIEF EXECUTIVES,VICE PRESIDENT / EXECUTIVE DIRECTOR OF QI & PM  OPERATIONS,Y,82930,2016,"CHICAGO, ILLINOIS",-87.6297982,41.8781136
276,CERTIFIED,HERBSTREITH & FOX INC.,CHIEF EXECUTIVES,EXECUTIVE VICE PRESIDENT,Y,187200,2016,"ELMSFORD, NEW YORK",-73.8201337,41.0550969
277,CERTIFIED,"KONCERT IT SOLUTIONS, LLC",CHIEF EXECUTIVES,E-COMMERCE DIRECTOR,Y,252158.4,2016,"CINCINNATI, OHIO",-84.5120196,39.1031182
278,CERTIFIED,EVANESCENT DIAGNOSTIC SYSTEMS LLC,CHIEF EXECUTIVES,CHIEF TECHNOLOGY OFFICER,Y,187200,2016,"LOS GATOS, CALIFORNIA",-121.9623751,37.2358078
279,CERTIFIED,"PLASCO, LLC",CHIEF EXECUTIVES,DIRECTOR INTERNATIONAL STRATEGIC INITIATIVES,Y,159370,2016,"MIAMI, FLORIDA",-80.1917902,25.7616798
280,CERTIFIED,"BASK MANAGEMENT, LLC",CHIEF EXECUTIVES,VP - ACQUISITIONS & DEVELOPMENT,Y,82930,2016,"ELGIN, ILLINOIS",-88.2825668,42.0354084
281,CERTIFIED,BARRY'S BOOTCAMP HOLDINGS LLC,CHIEF EXECUTIVES,CHIEF MARKETING OFFICER,Y,210122,2016,"LOS ANGELES, CALIFORNIA",-118.2436849,34.0522342
282,CERTIFIED,WILD SOUL LLC,CHIEF EXECUTIVES,EXECUTIVE DIRECTOR,Y,113090,2016,"KEY BISCAYNE, FLORIDA",-80.1628248,25.693713
283,CERTIFIED,HEALTHJUMP INC,CHIEF EXECUTIVES,CHIEF EXECUTIVE OFFICER,Y,187200,2016,"PHOENIXVILLE, PENNSYLVANIA",-75.5149128,40.1303822
284,CERTIFIED,THE MORGRIDGE INSTITUTE FOR RESEARCH INC.,CHIEF EXECUTIVES,DIRECTOR - MEDICAL ENGINEERING,Y,218733,2016,"MADISON, WISCONSIN",-89.4012302,43.0730517
285,CERTIFIED,WILLOWBRIDGE ASSOCIATES INC.,CHIEF EXECUTIVES,CHIEF RISK OFFICER,Y,187200,2016,"PLAINSBORO, NEW JERSEY",-74.585292,40.3382543
286,CERTIFIED,"ASCENT SOLAR TECHNOLOGIES, INC.",CHIEF EXECUTIVES,PRESIDENT & CHIEF EXECUTIVE OFFICER,Y,187200,2016,"THORNTON, COLORADO",-104.9719243,39.8680412
287,CERTIFIED,"DERMATOLOGIC COSMETIC LABORATORIES, LTD.",CHIEF EXECUTIVES,PRESIDENT/CEO,Y,151778,2016,"EAST HAVEN, CONNECTICUT",NA,NA
288,CERTIFIED,ALTO USA LLC,CHIEF EXECUTIVES,CEO,Y,205629,2016,"MIAMI, FLORIDA",-80.1917902,25.7616798
289,CERTIFIED,"VITASOY USA, INC.",CHIEF EXECUTIVES,PRESIDENT & CHIEF EXECUTIVE OFFICER,Y,209602,2016,"WOBURN, MASSACHUSETTS",-71.1522765,42.4792618
290,CERTIFIED,VARIANTYX INC.,CHIEF EXECUTIVES,CHIEF INFORMATION OFFICER,Y,164403,2016,"FRAMINGHAM, MASSACHUSETTS",-71.4161565,42.279286
291,CERTIFIED,"KAUTEX MACHINES, INC.",CHIEF EXECUTIVES,CHIEF EXECUTIVES,Y,187200,2016,"NORTH BRANCH, NEW JERSEY",NA,NA
292,CERTIFIED,COTTONWOOD MANAGEMENT LLC,CHIEF EXECUTIVES,CHIEF OPERATING OFFICER,Y,117998.4,2016,"PASADENA, CALIFORNIA",-118.1445155,34.1477849
293,CERTIFIED,"THRU RAINBOW, LLC",CHIEF EXECUTIVES,CHIEF EXECUTIVE OFFICER,Y,102190,2016,"JACKSONVILLE, FLORIDA",-81.655651,30.3321838
294,CERTIFIED,"HOSPIRA INC., A PFIZER COMPANY",CHIEF EXECUTIVES,"VICE PRESIDENT, U.S. PHARMA OPERATIONS",Y,238368,2016,"LAKE FOREST, ILLINOIS",-87.840625,42.2586342
295,WITHDRAWN,IMPERIAL PACIFIC INTERNATIONAL CNMI,CHIEF EXECUTIVES,SENIOR VICE PRESIDENT OF HOTEL OPERATIONS,Y,165920,2016,"SAIPAN, NA",145.7297891,15.1515153
296,CERTIFIED,KAIZEN ANALYTIX LLC,CHIEF EXECUTIVES,"DIRECTOR, OPERATIONS RESEARCH",Y,102190,2016,"ATLANTA, GEORGIA",-84.3879824,33.7489954
297,CERTIFIED,"LASSONDE PAPPAS AND COMPANY, INC.",CHIEF EXECUTIVES,CHIEF EXECUTIVE OFFICER,Y,247832,2016,"CARNEYS POINT, NEW JERSEY",NA,NA
298,WITHDRAWN,IMPERIAL PACIFIC INTERNATIONAL CNMI,CHIEF EXECUTIVES,VICE PRESIDENT OF HOTEL OPERATIONS,Y,165920,2016,"SAIPAN, NA",145.7297891,15.1515153
299,CERTIFIED,"UNIVERSITY OF CALIFORNIA, LOS ANGELES",CHIEF EXECUTIVES,ASSO. VICE CHANCELLOR FOR INTEL. PROP. AND IND. SPON. RES.,Y,91312,2016,"LOS ANGELES, CALIFORNIA",-118.2436849,34.0522342
300,CERTIFIED,"VITASOY USA, INC.",CHIEF EXECUTIVES,PRESIDENT & CHIEF EXECUTIVE OFFICER,Y,209602,2016,"WOBURN, MASSACHUSETTS",-71.1522765,42.4792618
301,CERTIFIED,YALE UNIVERSITY,CHIEF EXECUTIVES,CHIEF OPERATING OFFICER,Y,195208,2016,"NEW HAVEN, CONNECTICUT",-72.9278835,41.308274
302,CERTIFIED,HEALTHJUMP INC,CHIEF EXECUTIVES,CHIEF EXECUTIVE OFFICER,Y,187200,2016,"PHOENIXVILLE, PENNSYLVANIA",-75.5149128,40.1303822
303,CERTIFIED,"BROOKS BROTHERS GROUP, INC",CHIEF EXECUTIVES,"VICE PRESIDENT, HOSPITALITY DIVISION",Y,233418,2016,"NEW YORK, NEW YORK",-74.0059413,40.7127837
304,CERTIFIED,AGCO CORPORATION,CHIEF EXECUTIVES,"VICE PRESIDENT, GLOBAL PURCHASING AND MATERIALS",Y,253635,2016,"DULUTH, GEORGIA",-84.1446376,34.0028786
305,WITHDRAWN,IMPERIAL PACIFIC INTERNATIONAL CNMI,CHIEF EXECUTIVES,"SENIOR VICE PRESIDENT, INFORMATION TECHNOLOGY",Y,214790,2016,"SAIPAN, NA",145.7297891,15.1515153
306,DENIED,"AGLYTIX, INC.",CHIEF EXECUTIVES,CHIEF OPERATING OFFICER,Y,70900,2016,"MANKATO, MINNESOTA",-93.9993996,44.1635775
307,CERTIFIED,"AGLYTIX, INC.",CHIEF EXECUTIVES,CHIEF OPERATING OFFICER,Y,70900,2016,"MANKATO, MINNESOTA",-93.9993996,44.1635775
308,CERTIFIED,IMPERIAL PACIFIC INTERNATIONAL CNMI,CHIEF EXECUTIVES,SENIOR VICE PRESIDENT OF HOTEL OPERATIONS,Y,214790,2016,"SAIPAN, NA",145.7297891,15.1515153
309,CERTIFIED,"PGM TECHNOLOGIES, INC.",CHIEF EXECUTIVES,OPERATIONS MANAGER,N,50107,2016,"KNOXVILLE, TENNESSEE",-83.9207392,35.9606384
310,CERTIFIED,"HSO NORTH AMERICA, LLC",CHIEF EXECUTIVES,CHIEF TECHNOLOGY OFFICER,Y,130853,2016,"NORTHBROOK, ILLINOIS",-87.8289548,42.1275267
311,CERTIFIED,"STUDENTS FOR LIBERTY, INCORPORATED",CHIEF EXECUTIVES,CHIEF EXECUTIVE OFFICER,Y,103480,2016,"WASHINGTON, DISTRICT OF COLUMBIA",-77.0368707,38.9071923
312,CERTIFIED,"CIOX HEALTH, LLC",CHIEF EXECUTIVES,CHIEF TECHNOLOGY OFFICER OF PROVIDER SOLUTIONS,Y,246314,2016,"ALPHARETTA, GEORGIA",-84.2940899,34.0753762
313,CERTIFIED,"TRAILRUNNER INTERNATIONAL, LLC",CHIEF EXECUTIVES,CHIEF OPERATING OFFICER,Y,149594,2016,"WASHINGTON, DISTRICT OF COLUMBIA",-77.0368707,38.9071923
314,CERTIFIED,LUXOTTICA RETAIL NORTH AMERICA INC.,CHIEF EXECUTIVES,SR. DIRECTOR - CONTINUOUS IMPROVEMENT,Y,155958,2016,"MASON, OHIO",-84.309939,39.3600586
315,CERTIFIED,"AXMENTOR, INC.",CHIEF EXECUTIVES,CHIEF EXECUTIVE OFFICER,Y,205566,2016,"SAN DIEGO, CALIFORNIA",-117.1610838,32.715738
316,CERTIFIED-WITHDRAWN,UNUM GROUP,CHIEF EXECUTIVES,"SVP, BUSINESS & TECHNOLOGY TRANSFORMATION",Y,218691,2016,"PORTLAND, MAINE",-70.2553259,43.661471
317,CERTIFIED,CHOU TEAM REALTY INC.,CHIEF EXECUTIVES,CHIEF ANALYTICS OFFICER,Y,119558,2016,"IRVINE, CALIFORNIA",-117.7946942,33.6839473
318,CERTIFIED,BARRY'S BOOTCAMP HOLDINGS LLC,CHIEF EXECUTIVES,CHEIF MARKETING OFFICER,Y,240469,2016,"NEW YORK, NEW YORK",-74.0059413,40.7127837
319,CERTIFIED,LOS ANGELES BIOMEDICAL RESEARCH INSTITUTE,CHIEF EXECUTIVES,CHIEF SCIENTIFIC OFFICER,Y,162115,2016,"TORRANCE, CALIFORNIA",-118.3406288,33.8358492
320,CERTIFIED,"CHYY (USA), LLC, F/K/A HRC LEASING COMPANY, LLC",CHIEF EXECUTIVES,PRESIDENT,Y,252137.6,2016,"WATERLOO, NEBRASKA",NA,NA
321,CERTIFIED,"ALLIED MINERAL PRODUCTS, INC.",CHIEF EXECUTIVES,"CORPORATE VP, DOMESTIC FOUNDRY AND STEEL",Y,102960,2016,"COLUMBUS, OHIO",-82.9987942,39.9611755
322,CERTIFIED,AVURE TECHNOLOGIES INCORPORATED,CHIEF EXECUTIVES,CHIEF TECHNICAL OFFICER,Y,156354,2016,"MIDDLETOWN, OHIO",-84.3982763,39.5150576
323,CERTIFIED,HEARTLAND TECHNOLOGY PARTNERS LLC,CHIEF EXECUTIVES,CHIEF FINANCIAL OFFICER,N,54662,2016,"KIRKWOOD, MISSOURI",NA,NA
324,CERTIFIED,"LAICON CONSULTING SERVICES, INC.",CHIEF EXECUTIVES,CHIEF EXECUTIVE OFFICER,Y,94057.6,2016,"ORLANDO, FLORIDA",-81.3792365,28.5383355
325,CERTIFIED-WITHDRAWN,"VITCO DISTRIBUTORS, INC",CHIEF EXECUTIVES,CHIEF FINANCIAL OFFICER,Y,133224,2016,"FONTANA, CALIFORNIA",-117.435048,34.0922335
326,CERTIFIED,CHENMED LLC,CHIEF EXECUTIVES,CHIEF OF STAFF,Y,262413,2016,"MIAMI, FLORIDA",-80.1917902,25.7616798
327,CERTIFIED,LIFE TECHNOLOGIES CORPORATION,CHIEF EXECUTIVES,"DIRECTOR, BUSINESS DEVELOPMENT",Y,163176,2016,"SOUTH SAN FRANCISCO, CALIFORNIA",-122.4077498,37.654656
328,CERTIFIED,IT PEOPLE NETWORK LLC,CHIEF EXECUTIVES,DIRECTOR,Y,85821,2016,"AURORA, ILLINOIS",-88.3200715,41.7605849
329,WITHDRAWN,HERBSTREITH & FOX INC.,CHIEF EXECUTIVES,EXECUTIVE VICE PRESIDENT,Y,187200,2016,"ELMSFORD, NEW YORK",-73.8201337,41.0550969
330,CERTIFIED,"CRANE & CO., INC.",CHIEF EXECUTIVES,"PRESIDENT, INTERNATIONAL CURRENCY",Y,267800,2016,"BOSTON, MASSACHUSETTS",-71.0588801,42.3600825
331,CERTIFIED,LAUDERDALE TANKERS CORP.,CHIEF EXECUTIVES,MANAGING DIRECTOR,Y,211474,2016,"MIAMI, FLORIDA",-80.1917902,25.7616798
332,CERTIFIED,"TANOTA DEVELOPMENT, LLC",CHIEF EXECUTIVES,RESIDENT MANAGER,Y,90626,2016,"TUMON, NA",144.7878689,13.4970205
333,CERTIFIED,"OILFIELD STEEL SUPPLY, LLC",CHIEF EXECUTIVES,PRESIDENT,Y,197642,2016,"MAGNOLIA, TEXAS",-95.7507815,30.2093794
334,CERTIFIED,AMERICAN CONSERVATORY THEATRE FOUNDATION,CHIEF EXECUTIVES,EXECUTIVE DIRECTOR,Y,174803,2016,"SAN FRANCISCO, CALIFORNIA",-122.4194155,37.7749295
335,CERTIFIED,ACCELETRADE CORPORATION,CHIEF EXECUTIVES,"CHIEF EXECUTIVE OFFICER, US & EUROPE",Y,240469,2016,"NEW YORK, NEW YORK",-74.0059413,40.7127837
336,CERTIFIED,TRANS AMERICAN INFORMATION SYSTEMS INC,CHIEF EXECUTIVES,CHIEF TECHNOLOGY OFFICER,Y,229258,2016,"DALLAS, TEXAS",-96.7969879,32.7766642
337,CERTIFIED,THE HENRY M. JACKSON FOUNDATION,CHIEF EXECUTIVES,ASSOCIATE DIRECTOR-THERAPEUTICS RESEARC,Y,247978,2016,"BETHESDA, MARYLAND",-77.0947092,38.984652
338,CERTIFIED,PEATIX INC.,CHIEF EXECUTIVES,CHIEF EXECUTIVE OFFICER,Y,153005,2016,"NEW YORK, NEW YORK",-74.0059413,40.7127837
339,CERTIFIED,HELLO INC.,CHIEF EXECUTIVES,CHIEF BUSINESS OFFICER,Y,174803,2016,"SAN FRANCISCO, CALIFORNIA",-122.4194155,37.7749295
340,CERTIFIED,"WOOD-MIZER HOLDINGS, INC.",CHIEF EXECUTIVES,CHIEF EXECUTIVE OFFICER,Y,190382,2016,"INDIANAPOLIS, INDIANA",-86.158068,39.768403
341,CERTIFIED,"L & T GROUP OF COMPANIES, LTD.",CHIEF EXECUTIVES,EXECUTIVE OFFICE MANAGER,N,55200,2016,"SAIPAN, NA",145.7297891,15.1515153
342,CERTIFIED,EAPEIRON SOLUTIONS INC,CHIEF EXECUTIVES,BUSINESS DEVELOPMENT DIRECTOR,Y,109616,2016,"MIAMI LAKES, FLORIDA",-80.3086619,25.9087056
343,CERTIFIED,RIVIAN AUTOMOTIVE LLC,CHIEF EXECUTIVES,CHIEF STRATEGY OFFICER,Y,226574,2016,"SAN MATEO, CALIFORNIA",-122.3255254,37.5629917
344,CERTIFIED,STEVE HERMANN HOTELS LLC,CHIEF EXECUTIVES,GENERAL MANAGER,Y,81765,2016,"PALM SPRINGS, CALIFORNIA",-116.5452921,33.8302961
345,CERTIFIED,"DIEFFENBACHER USA, INC.",CHIEF EXECUTIVES,PRESIDENT AND CEO,Y,199930,2016,"ALPHARETTA, GEORGIA",-84.2940899,34.0753762
346,CERTIFIED,"FINACCESS ADVISORS, LLC",CHIEF EXECUTIVES,"MANAGING DIRECTOR, FAMILY OFFICE SERVICES",Y,262413,2016,"MIAMI, FLORIDA",-80.1917902,25.7616798
347,CERTIFIED,BLACK PEARL EXPLORATION LLC,CHIEF EXECUTIVES,CHIEF OPERATING OFFICER,Y,117957,2016,"HOUSTON, TEXAS",-95.3698028,29.7604267
348,DENIED,ASSOCIATION OF UNIVERSTY RESEARCH PARKS,CHIEF EXECUTIVES,CHIEF EXECUTIVE OFFICER,Y,147326,2016,"TUCSON, ARIZONA",-110.926479,32.2217429
349,CERTIFIED,MIDLANDS MANEGEMENT COMPANY,CHIEF EXECUTIVES,EXECUTIVE VICE PRESIDENT AND CHIEF OPERATING OFFICER,Y,173118,2016,"OKLAHOMA CITY, OKLAHOMA",-97.5164276,35.4675602
350,CERTIFIED,"WAL-MART ASSOCIATES, INC.",CHIEF EXECUTIVES,SR. DIRECTOR - PORTFOLIO MANAGEMENT,Y,114317,2016,"BENTONVILLE, ARKANSAS",-94.2088172,36.3728538
351,CERTIFIED,SW TECH CORPORATION,CHIEF EXECUTIVES,CHIEF OPERATING OFFICER,Y,1.00E+05,2016,"PASADENA, CALIFORNIA",-118.1445155,34.1477849
352,CERTIFIED,BLACK PEARL EXPLORATION LLC,CHIEF EXECUTIVES,CHIEF OPERATING OFFICER,Y,117957,2016,"HOUSTON, TEXAS",-95.3698028,29.7604267
353,CERTIFIED,MODERN DENTAL PROFESSIONALS LEE INC.,CHIEF EXECUTIVES,PC PRESIDENT/DIRECTOR OF CLINICAL CARE,Y,91520,2016,"HUBER HEIGHTS, OHIO",NA,NA
354,CERTIFIED,"TRACE GENOMICS, INC.",CHIEF EXECUTIVES,CHIEF EXECUTIVE OFFICER,Y,123053,2016,"SAN FRANCISCO, CALIFORNIA",-122.4194155,37.7749295
355,CERTIFIED,WOO SPORTS INC.,CHIEF EXECUTIVES,CHIEF EXECUTIVE OFFICER,Y,118664,2016,"BOSTON, MASSACHUSETTS",-71.0588801,42.3600825
356,CERTIFIED,M. MORRIS INC.,CHIEF EXECUTIVES,VICE PRESIDENT OF STRATEGIC DEVELOPMENT,Y,163114,2016,"NORTH HOLLYWOOD, CALIFORNIA",-118.3812562,34.187044
357,CERTIFIED,WORLD WILDLIFE FUND US,CHIEF EXECUTIVES,"GLOBAL LEADER, WWF MARKETS PRACTICE",Y,256588.8,2016,"WASHINGTON, DISTRICT OF COLUMBIA",-77.0368707,38.9071923
358,WITHDRAWN,"ARUZE GAMING AMERICA, INC.",CHIEF EXECUTIVES,GROUP CHIEF OPERATING OFFICER,Y,235165,2016,"LAS VEGAS, NEVADA",-115.1398296,36.1699412
359,CERTIFIED,ASSOCIATION OF UNIVERSITY RESEARCH PARKS,CHIEF EXECUTIVES,CHIEF EXECUTIVE OFFICER,Y,147326,2016,"TUCSON, ARIZONA",-110.926479,32.2217429
360,CERTIFIED,"STRATEGY ONE, INC.",CHIEF EXECUTIVES,SENIOR VICE PRESIDENT,Y,174803,2016,"SAN FRANCISCO, CALIFORNIA",-122.4194155,37.7749295
361,CERTIFIED,TWINLAB CONSOLIDATION CORPORATION,CHIEF EXECUTIVES,"VICE PRESIDENT, SALES & MARKETING",Y,177798,2016,"BOCA RATON, FLORIDA",-80.1289321,26.3683064
362,CERTIFIED,MECA FASHION CORPORATION,CHIEF EXECUTIVES,VICE PRESIDENT - BESINESS OPERATION & DEVELOPMENT,N,54662,2016,"ELLISVILLE, MISSOURI",-90.5870686,38.5925532
363,CERTIFIED,MEMORIAL HOSPITAL,CHIEF EXECUTIVES,CHIEF MEDICAL OFFICER,Y,180627,2016,"OWOSSO, MICHIGAN",NA,NA
364,CERTIFIED,320 LINCOLN LLC,CHIEF EXECUTIVES,EXECUTIVE DIRECTOR,Y,262412.8,2016,"MIAMI BEACH, FLORIDA",-80.1300455,25.790654
365,CERTIFIED,"STRATEGIC GLOBAL MANAGEMENT, INC.",CHIEF EXECUTIVES,"DIRECTOR, INTERNATIONAL BUSINESS DEVELOPMENT",Y,133224,2016,"RIVERSIDE, CALIFORNIA",-117.3961564,33.9533487
366,CERTIFIED,"TRUEBLUE, INC.",CHIEF EXECUTIVES,"VICE PRESIDENT, BUSINESS INTELLIGENCE",Y,98904,2016,"TACOMA, WASHINGTON",-122.4442906,47.2528768
367,CERTIFIED,"STRATEGY ONE, INC.",CHIEF EXECUTIVES,EXECUTIVE VICE PRESIDENT,Y,174803,2016,"SAN FRANCISCO, CALIFORNIA",-122.4194155,37.7749295
368,CERTIFIED,"CIKLUM, INC.",CHIEF EXECUTIVES,CHIEF TECHNOLOGY OFFICER,Y,149926,2016,"CARLSBAD, CALIFORNIA",-117.3505939,33.1580933
369,CERTIFIED,NATIONAL COUNCIL OF YOUNG MEN'S CHRISTIAN ASSOCIATIONS OF THE USA,CHIEF EXECUTIVES,"VICE-PRESIDENT, LARGE YMCA RESOURCES",Y,137155,2016,"CHICAGO, ILLINOIS",-87.6297982,41.8781136
370,CERTIFIED,"LIBERATE MEDICAL, LLC",CHIEF EXECUTIVES,CHIEF EXECUTIVE OFFICER,Y,88691,2016,"CRESTWOOD, KENTUCKY",NA,NA
371,CERTIFIED,PEATIX INC.,CHIEF EXECUTIVES,CHIEF EXECUTIVE OFFICER,Y,153005,2016,"BROOKLYN, NEW YORK",-73.9441579,40.6781784
372,CERTIFIED,A & F MANAGEMENT OF FLORIDA,CHIEF EXECUTIVES,CHIEF EXECUTIVE,Y,202300.8,2016,"MIAMI LAKES, FLORIDA",-80.3086619,25.9087056
373,WITHDRAWN,JEWISH FEDERATION OF GREATER TOLEDO,CHIEF EXECUTIVES,CHIEF EXECUTIVE OFFICER,Y,137758,2016,"SYLVANIA, OHIO",NA,NA
374,CERTIFIED,"ECOINSIGHT, INC.",CHIEF EXECUTIVES,"VICE PRESIDENT, QA",Y,92536,2016,"ALPHARETTA, GEORGIA",-84.2940899,34.0753762
375,CERTIFIED,"BECHTEL EQUIPMENT OPERATIONS, INC.",CHIEF EXECUTIVES,CHIEF FINANCIAL OFFICER,Y,191422,2016,"SUGAR LAND, TEXAS",-95.6349463,29.6196787
376,CERTIFIED-WITHDRAWN,"DEKALB REGIONAL HEALTH SYSTEM, INC.",CHIEF EXECUTIVES,MEDICAL DIRECTOR (HOSPITALIST),Y,199930,2016,"DECATUR, GEORGIA",-84.2963123,33.7748275
377,CERTIFIED,JEWISH FEDERATION OF GREATER TOLEDO,CHIEF EXECUTIVES,CHIEF EXECUTIVE OFFICER,Y,137758,2016,"SYLVANIA, OHIO",NA,NA
378,WITHDRAWN,"MICRO FINANCE ADVISORS, INC.",CHIEF EXECUTIVES,VICE PRESIDENT OF PLANNING AND PROJECTS,Y,113090,2016,"MIAMI, FLORIDA",-80.1917902,25.7616798
379,CERTIFIED,"MICRO FINANCE ADVISORS, INC.",CHIEF EXECUTIVES,VICE PRESIDENT OF PLANNING AND PROJECTS,Y,113090,2016,"MIAMI, FLORIDA",-80.1917902,25.7616798
380,CERTIFIED,"MICRO FINANCE ADVISORS, INC.",CHIEF EXECUTIVES,VICE PRESIDENT OF PLANNING AND PROJECTS,Y,113090,2016,"MIAMI, FLORIDA",-80.1917902,25.7616798
381,CERTIFIED,"ELBRUS, INC.",CHIEF EXECUTIVES,CHIEF EXECUTIVE OFFICER,Y,113090,2016,"MIAMI, FLORIDA",-80.1917902,25.7616798
382,CERTIFIED,"HITMAP, INC.",CHIEF EXECUTIVES,CHIEF EXECUTIVE OFFICER,Y,106246,2016,"BERKELEY, CALIFORNIA",-122.272747,37.8715926
383,CERTIFIED,"CALIFORNIA GIANT, INC.",CHIEF EXECUTIVES,EXECUTIVE DIRECTOR - BLUEBERRY DIVISION,Y,127795,2016,"WATSONVILLE, CALIFORNIA",-121.7568946,36.910231
384,CERTIFIED-WITHDRAWN,CORK ALLIANCE INC,CHIEF EXECUTIVES,CHIEF OPERATIONS OFFICER,Y,113090,2016,"DORAL, FLORIDA",-80.3553302,25.8195424
385,CERTIFIED,CORK ALLIANCE INC,CHIEF EXECUTIVES,CHIEF OPERATIONS OFFICER,Y,113090,2016,"DORAL, FLORIDA",-80.3553302,25.8195424
386,CERTIFIED,ALTO USA LLC,CHIEF EXECUTIVES,CEO,Y,205629,2016,"MIAMI, FLORIDA",-80.1917902,25.7616798
387,CERTIFIED,"PUERTO RICO SCIENCE, TECHNOLOGY AND RESEARCH TRUST",CHIEF EXECUTIVES,EXECUTIVE DIRECTOR,Y,83866,2016,"RIO PIEDRAS, PUERTO RICO",NA,NA
388,CERTIFIED,UPGRADE 3D LLC,CHIEF EXECUTIVES,CHIEF EXECUTIVE OFFICER,Y,164445,2016,"BOULDER, COLORADO",-105.2705456,40.0149856
389,DENIED,"VIA PACIFICA CA, INC",CHIEF EXECUTIVES,CHIEF EXECUTIVE OFFICER,Y,103290,2016,"SAN FRANCISCO, CALIFORNIA",-122.4194155,37.7749295
390,CERTIFIED,"JOSEPH PRINCE MINISTRIES, INC.",CHIEF EXECUTIVES,DIRECTOR OF BUSINESS DEVELOPMENT,Y,118290,2016,"SOUTHLAKE, TEXAS",-97.1341783,32.9412363
391,CERTIFIED,"GETMII, INC.",CHIEF EXECUTIVES,"CO-FOUNDER, HEAD OF PRODUCT",Y,119184,2016,"ALLSTON, MASSACHUSETTS",-71.1337112,42.3539038
392,CERTIFIED,CARTRIDGE WORLD,CHIEF EXECUTIVES,GLOBAL CHIEF OPERATING OFFICER,Y,130853,2016,"MCHENRY, ILLINOIS",-88.2667534,42.333355
393,CERTIFIED,CARTRIDGE WORLD,CHIEF EXECUTIVES,GLOBAL CHIEF OPERATING OFFICER,Y,130853,2016,"MCHENRY, ILLINOIS",-88.2667534,42.333355
394,CERTIFIED,CARTRIDGE WORLD,CHIEF EXECUTIVES,GLOBAL CHIEF OPERATING OFFICER,Y,130853,2016,"MCHENRY, ILLINOIS",-88.2667534,42.333355
395,CERTIFIED,VICTORY HILL ENTERTAINMENT GROUP LLC,CHIEF EXECUTIVES,CHIEF EXECUTIVE OFFICER,Y,256173,2016,"SHERMAN OAKS, CALIFORNIA",-118.451357,34.1489719
396,CERTIFIED,"BON WORTH, INC.",CHIEF EXECUTIVES,CHIEF OPERATING OFFICER,Y,125424,2016,"HENDERSONVILLE, NORTH CAROLINA",NA,NA
397,CERTIFIED,IMPERIAL PACIFIC INTERNATIONAL CNMI,CHIEF EXECUTIVES,SENIOR VICE PRESIDENT OF HOTEL OPERATIONS,Y,214790,2016,"SAIPAN, NA",145.7297891,15.1515153
398,DENIED,"DON IGNACIO CULINARY ARTS SCHOOL, INC.",CHIEF EXECUTIVES,PRESIDENT AND CHIEF EXECUTIVE OFFICER,Y,2648400,2016,"DORAL, FLORIDA",-80.3553302,25.8195424
399,CERTIFIED,INFOCOMM INVESTMENTS (US) LLC,CHIEF EXECUTIVES,DIRECTOR,Y,226574,2016,"SAN FRANCISCO, CALIFORNIA",-122.4194155,37.7749295
400,WITHDRAWN,"CLASSIC SLEEPCARE, LLC",CHIEF EXECUTIVES,CHIEF EXECUTIVE OFFICER,Y,215176,2016,"AGOURA HILLS, CALIFORNIA",-118.7616764,34.1533395
401,CERTIFIED,INFRASCALE INC.,CHIEF EXECUTIVES,CHIEF EXECUTIVE OFFICER,Y,204672,2016,"EL SEGUNDO, CALIFORNIA",-118.4164652,33.9191799
402,CERTIFIED,"COLLINEAR NETWORKS, INC.",CHIEF EXECUTIVES,EXECUTIVE CHAIRMAN,Y,187200,2016,"DENVER, COLORADO",-104.990251,39.7392358
403,CERTIFIED-WITHDRAWN,"RIO TINTO MINERALS, INC.",CHIEF EXECUTIVES,CHIEF COMMERCIAL OFFICER,Y,229341,2016,"GREENWOOD VILLAGE, COLORADO",-104.9508141,39.6172101
404,CERTIFIED-WITHDRAWN,ASKLEPION PHARMACEUTICALS LLC,CHIEF EXECUTIVES,CHIEF OPERATING OFFICER,Y,245606,2016,"BALTIMORE, MARYLAND",-76.6121893,39.2903848
405,CERTIFIED-WITHDRAWN,"ORION HEALTH, INC.",CHIEF EXECUTIVES,"EXECUTIVE VICE PRESIDENT, GLOBAL SERVICES",Y,249995,2016,"SANTA MONICA, CALIFORNIA",-118.4911912,34.0194543
406,CERTIFIED,STEWART & STEVENSON LLC,CHIEF EXECUTIVES,"EXECUTIVE CHAIRMAN, STEWART & STEVENSON POWER PRODUCTS",Y,228946,2016,"HOUSTON, TEXAS",-95.3698028,29.7604267
407,CERTIFIED-WITHDRAWN,BIORASI LLC,CHIEF EXECUTIVES,"SR. VP, BUSINESS DEVELOPMENT",Y,205629,2016,"MIAMI, FLORIDA",-80.1917902,25.7616798
408,WITHDRAWN,ALPHA USA,CHIEF EXECUTIVES,CHIEF EXECUTIVE OFFICER,Y,142771,2016,"BANNOCKBURN, ILLINOIS",-87.8664579,42.1933581
409,DENIED,STEWART & STEVENSON LLC,CHIEF EXECUTIVES,"EXECUTIVE CHAIRMAN, STEWART & STEVENSON POWER PRODUCTS",Y,228946,2016,"HOUSTON, TEXAS",-95.3698028,29.7604267
410,CERTIFIED,"AUSFILM USA, INC.",CHIEF EXECUTIVES,PRESIDENT,Y,117998,2016,"LOS ANGELES, CALIFORNIA",-118.2436849,34.0522342
411,CERTIFIED,"OAKTREE CAPITAL MANAGEMENT, L.P.",CHIEF EXECUTIVES,SENIOR VICE PRESIDENT,Y,164050,2016,"LOS ANGELES, CALIFORNIA",-118.2436849,34.0522342
412,CERTIFIED,"ARISTOCRAT TECHNOLOGIES, INC.",CHIEF EXECUTIVES,VP - GLOBAL TALENT ACQUISITON & HR DIGITAL DIVISIONS,Y,177528,2016,"LAS VEGAS, NEVADA",-115.1398296,36.1699412
413,CERTIFIED,"HAWKWOOD ENERGY, LLC",CHIEF EXECUTIVES,CHIEF FINANCIAL OFFICER,Y,219523,2016,"DENVER, COLORADO",-104.990251,39.7392358
414,CERTIFIED-WITHDRAWN,BEAM SUNTORY INC.,CHIEF EXECUTIVES,VICE PRESIDENT AMERICAS AND GLOBAL MARKETING,Y,238368,2016,"DEERFIELD, ILLINOIS",-87.8445119,42.1711365
415,DENIED,STRATOSMEDIA INC,CHIEF EXECUTIVES,CEO,Y,215862,2016,"SAN FRANCISCO, CALIFORNIA",-122.4194155,37.7749295
416,CERTIFIED,HARTSHORNE MINING GROUP LLC,CHIEF EXECUTIVES,EXECUTIVE DIRECTOR,Y,114941,2016,"EVANSVILLE, INDIANA",-87.5710898,37.9715592
417,CERTIFIED,"BURLEIGH POINT, LTD.",CHIEF EXECUTIVES,GLOBAL PRESIDENT BILLABONG,Y,187200,2016,"IRVINE, CALIFORNIA",-117.7946942,33.6839473
418,CERTIFIED,ALPHA USA,CHIEF EXECUTIVES,CHIEF EXECUTIVE OFFICER,Y,142771,2016,"BANNOCKBURN, ILLINOIS",-87.8664579,42.1933581
419,DENIED,STRATOSMEDIA INC,CHIEF EXECUTIVES,CEO,Y,215862,2016,"SAN FRANCISCO, CALIFORNIA",-122.4194155,37.7749295
420,CERTIFIED,BEAM SUNTORY INC.,CHIEF EXECUTIVES,"VICE PRESIDENT HUMAN RESOURCES, AMERICAS & GLOBAL MARKETING",Y,238368,2016,"DEERFIELD, ILLINOIS",-87.8445119,42.1711365
421,DENIED,"PINCHME GROUP, INC",CHIEF EXECUTIVES,CEO/CHAIRMAN,Y,233418,2016,"NEW YORK, NEW YORK",-74.0059413,40.7127837
422,CERTIFIED,"SERRAVIEW AMERICA, INC.",CHIEF EXECUTIVES,CHEIF EXECUTIVE OFFICER,Y,187200,2016,"NEW YORK, NEW YORK",-74.0059413,40.7127837
423,CERTIFIED,SWEET GREEN FIELDS USA LLC,CHIEF EXECUTIVES,CHIEF FINANCIAL OFFICER,Y,191859,2016,"BELLINGHAM, WASHINGTON",-122.4786854,48.7519112
424,CERTIFIED,SINO GRINDING (AMERICAS) INC,CHIEF EXECUTIVES,CHIEF EXECUTIVE OFFICER,Y,89274,2016,"MESA, ARIZONA",-111.8314724,33.4151843
425,DENIED,STRATOSMEDIA INC,CHIEF EXECUTIVES,CEO,Y,215862,2016,"SAN FRANCISCO, CALIFORNIA",-122.4194155,37.7749295
426,WITHDRAWN,"SFORZANDO, INC.",CHIEF EXECUTIVES,CHIEF OPERATING OFFICER,Y,187200,2016,"SAN FRANCISCO, CALIFORNIA",-122.4194155,37.7749295
427,CERTIFIED,"SFORZANDO, INC.",CHIEF EXECUTIVES,CHIEF EXECUTIVE OFFICER,Y,187200,2016,"SAN FRANCISCO, CALIFORNIA",-122.4194155,37.7749295
428,CERTIFIED,"DTP COMM DEV, LLC",CHIEF EXECUTIVES,CHIEF EXECUTIVE OFFICER,Y,225035,2016,"LAS VEGAS, NEVADA",-115.1398296,36.1699412
429,WITHDRAWN,POIT LLC,CHIEF EXECUTIVES,VICE PRESIDENT OF SALES,Y,187200,2016,"DALLAS, TEXAS",-96.7969879,32.7766642
430,CERTIFIED,DRUGDEV INC.,CHIEF EXECUTIVES,EXECUTIVE CHAIRMAN,Y,187200,2016,"WAYNE, PENNSYLVANIA",-75.3698895,40.0415996
431,CERTIFIED,MATILDA MEDIA GROUP LLC,CHIEF EXECUTIVES,PRESIDENT,Y,187200,2016,"NEW YORK, NEW YORK",-74.0059413,40.7127837
432,CERTIFIED,POIT LLC,CHIEF EXECUTIVES,VICE PRESIDENT OF SALES,Y,187200,2016,"DALLAS, TEXAS",-96.7969879,32.7766642
433,CERTIFIED,"MCCHRYSTAL GROUP, LLC",CHIEF EXECUTIVES,"PRESIDENT, NORTHEAST REGION",Y,241842,2016,"ALEXANDRIA, VIRGINIA",-77.0469214,38.8048355
434,CERTIFIED,WARNER BROS. ENTERTAINMENT INC.,CHIEF EXECUTIVES,"SENIOR VICE PRESIDENT, PHYSICAL PRODUCTION",Y,164050,2016,"BURBANK, CALIFORNIA",-118.3089661,34.1808392
435,CERTIFIED,WARNER BROS. STUDIO ENTERPRISES INC.,CHIEF EXECUTIVES,"SENIOR VICE PRESIDENT, PHYSICAL PRODUCTION",Y,164050,2016,"BURBANK, CALIFORNIA",-118.3089661,34.1808392
436,CERTIFIED,THE COCA-COLA COMPANY,CHIEF EXECUTIVES,"CHIEF INFORMATION OFFICER, BUSINESS UNIT IT SERVICES",Y,246314,2016,"ATLANTA, GEORGIA",-84.3879824,33.7489954
437,CERTIFIED,"DTZ AMERICAS, INC.",CHIEF EXECUTIVES,GLOBAL CHIEF HUMAN RESOURCES & STRATEGY OFFICER,Y,226699,2016,"CHICAGO, ILLINOIS",-87.6297982,41.8781136
438,CERTIFIED,PRESCO INC.,CHIEF EXECUTIVES,CHIEF OPERATIONS OFFICER,Y,145000,2016,"SAN JUAN CAPISTRANO, CALIFORNIA",-117.6625509,33.5016932
439,CERTIFIED,"HAILE GOLD MINE, INC.",CHIEF EXECUTIVES,EVP & CHIEF DEVELOPMENT OFFICER,Y,188843,2016,"KERSHAW, SOUTH CAROLINA",NA,NA
440,DENIED,MCLEAREN ROAD PROPERTY OWNER LLC,CHIEF EXECUTIVES,CHIEF EXECUTIVE,Y,103480,2016,"WASHINGTON, DISTRICT OF COLUMBIA",-77.0368707,38.9071923
441,DENIED,MUSIC ICON INC,CHIEF EXECUTIVES,CHIEF EXECUTIVE OFFICER & PRESIDENT,Y,256173,2016,"LOS ANGELES, CALIFORNIA",-118.2436849,34.0522342
442,CERTIFIED,STRYKER CORPORATION,CHIEF EXECUTIVES,"VP, COMPLIANCE & RISK MANAGEMENT",Y,189862,2016,"KALAMAZOO, MICHIGAN",-85.5872286,42.2917069
443,DENIED,MCLEAREN ROAD PROPERTY OWNER LLC,CHIEF EXECUTIVES,CHIEF EXECUTIVE,Y,103480,2016,"WASHINGTON, DISTRICT OF COLUMBIA",-77.0368707,38.9071923
444,CERTIFIED,NICHOLAS THE LABEL LLC,CHIEF EXECUTIVES,CEO,Y,256173,2016,"LOS ANGELES, CALIFORNIA",-118.2436849,34.0522342
445,CERTIFIED,PARNELL CORPORATE SERVICES US INC,CHIEF EXECUTIVES,CHIEF EXECUTIVE OFFICER,Y,157581,2016,"OVERLAND PARK, KANSAS",-94.6707917,38.9822282
446,CERTIFIED,"RODAN & FIELDS, LLC",CHIEF EXECUTIVES,"VP, DIGITAL PRODUCTS & DIGITAL MARKETING",Y,256173,2016,"SAN FRANCISCO, CALIFORNIA",-122.4194155,37.7749295
447,CERTIFIED,BABSON CAPITAL MANAGEMENT LLC,CHIEF EXECUTIVES,"MANAGING DIRECTOR, GLOBAL HEAD OF RETAIL/WEALTH SALES",Y,187200,2016,"CHARLOTTE, NORTH CAROLINA",-80.8431267,35.2270869
448,CERTIFIED,BRYDGE TECHNOLOGIES INC.,CHIEF EXECUTIVES,CHIEF EXECUTIVE OFFICER,Y,197683,2016,"SAN DIEGO, CALIFORNIA",-117.1610838,32.715738
449,CERTIFIED,"SUNSHINE MINTING, INC.",CHIEF EXECUTIVES,EXECUTIVE VICE PRESIDENT OF OPERATIONS AND GENERAL MANAGER,Y,130021,2016,"LAS VEGAS, NEVADA",-115.1398296,36.1699412
450,DENIED,"ACCREDITATION ASSOCIATION FOR AMBULATORY HEALTH CARE, INC.",CHIEF EXECUTIVES,"VICE-PRESIDENT, AMBULATORY OPERATIONS",Y,151624,2016,"SKOKIE, ILLINOIS",-87.7416246,42.0324025
451,CERTIFIED,"JINDILLI, INC.",CHIEF EXECUTIVES,CHIEF FINANCIAL OFFICER,Y,130853,2016,"OAKBROOK TERRACE, ILLINOIS",-87.9645077,41.8500302
452,CERTIFIED,BATTERY MARKETING ASSOCIATES INC,CHIEF EXECUTIVES,COO,Y,102190,2016,"JACKSONVILLE, FLORIDA",-81.655651,30.3321838
453,DENIED,BLUESPOTPARK INC.,CHIEF EXECUTIVES,CHIEF TECHNICAL OFFICER,Y,75587.2,2016,"HONOLULU, HAWAII",-157.8583333,21.3069444
454,CERTIFIED-WITHDRAWN,"WEARE8, INC.",CHIEF EXECUTIVES,CHIEF EXECUTIVE OFFICER,Y,187200,2016,"NEW YORK, NEW YORK",-74.0059413,40.7127837
455,CERTIFIED,"MUSIC ICON, INC.",CHIEF EXECUTIVES,CHIEF EXECUTIVE OFFICER & PRESIDENT,Y,256173,2016,"LOS ANGELES, CALIFORNIA",-118.2436849,34.0522342
456,CERTIFIED,"VENTANA MEDICAL SYSTEMS, INC.",CHIEF EXECUTIVES,"VP, CLINCIAL SCIENCE",Y,149864,2016,"TUCSON, ARIZONA",-110.926479,32.2217429
457,CERTIFIED,ISATUS INC.,CHIEF EXECUTIVES,CHIEF EXECUTIVE OFFICER,Y,82930,2016,"CHICAGO, ILLINOIS",-87.6297982,41.8781136
458,CERTIFIED,BLUESPOTPARK INC.,CHIEF EXECUTIVES,CHIEF TECHNICAL OFFICER,Y,75587.2,2016,"HONOLULU, HAWAII",-157.8583333,21.3069444
459,CERTIFIED-WITHDRAWN,MCLEAREN ROAD PROPERTY OWNER LLC,CHIEF EXECUTIVES,CHIEF EXECUTIVE,Y,103480,2016,"WASHINGTON, DISTRICT OF COLUMBIA",-77.0368707,38.9071923
460,CERTIFIED,"WEARE8, INC.",CHIEF EXECUTIVES,CHIEF EXECUTIVE OFFICER,Y,187200,2016,"NEW YORK, NEW YORK",-74.0059413,40.7127837
461,DENIED,"ACCREDITATION ASSOCIATION FOR AMBULATORY HEALTH CARE, INC.",CHIEF EXECUTIVES,"VICE PRESIDENT, AMBULATORY OPERATIONS",Y,151624,2016,"SKOKIE, ILLINOIS",-87.7416246,42.0324025
462,CERTIFIED,"PROPERTY CONNECT, INC.",CHIEF EXECUTIVES,CHIEF EXECUTIVE,Y,130021,2016,"LAS VEGAS, NEVADA",-115.1398296,36.1699412
463,CERTIFIED,"SUNIZO, LLC",CHIEF EXECUTIVES,CHIEF FINANCIAL OFFICER,Y,94723,2016,"FORT MYERS, FLORIDA",-81.8723084,26.640628
464,CERTIFIED,"ARISTOCRAT TECHNOLOGIES, INC.",CHIEF EXECUTIVES,SENIOR VICE PRESIDENT-GLOBAL GAMING OPERATIONS,Y,225035,2016,"LAS VEGAS, NEVADA",-115.1398296,36.1699412
465,CERTIFIED,BLUECATS INC,CHIEF EXECUTIVES,CHIEF OPERATING OFFICER,Y,94370,2016,"AUSTIN, TEXAS",-97.7430608,30.267153
466,CERTIFIED,"ACCREDITATION ASSOCIATION FOR AMBULATORY HEALTH CARE, INC.",CHIEF EXECUTIVES,"VICE PRESIDENT, AMBULATORY OPERATIONS",Y,151624,2016,"SKOKIE, ILLINOIS",-87.7416246,42.0324025
467,CERTIFIED,ENSR MEDICAL INC,CHIEF EXECUTIVES,CHIEF EXECUTIVE,Y,130853,2016,"CHICAGO, ILLINOIS",-87.6297982,41.8781136
468,DENIED,NOGGIN IT INC,CHIEF EXECUTIVES,PRESIDENT &AMP; CEO,Y,236595,2016,"WALNUT CREEK, CALIFORNIA",-122.0651819,37.9100783
469,CERTIFIED,LIFESKINS INC,CHIEF EXECUTIVES,CHIEF EXECUTIVE OFFICER,Y,187200,2016,"SAUSALITO, CALIFORNIA",-122.4852507,37.8590937
470,CERTIFIED,NOGGIN IT INC,CHIEF EXECUTIVES,PRESIDENT &AMP; CEO,Y,236595,2016,"WALNUT CREEK, CALIFORNIA",-122.0651819,37.9100783
471,DENIED,ETHOS RESEARCH &AMP; DEVELOPMENT LLC,CHIEF EXECUTIVES,CHIEF SCIENTIFIC OFFICER,Y,155958,2016,"NEWPORT, KENTUCKY",NA,NA
472,CERTIFIED,MONDO VENTURES INC.,CHIEF EXECUTIVES,CHIEF ECECUTIVE,Y,187200,2016,"SAUSALITO, CALIFORNIA",-122.4852507,37.8590937
473,WITHDRAWN,"IMPERIAL PACIFIC INTERNATIONAL (CNMI), LLC",CHIEF EXECUTIVES,VICE PRESIDENT OF OPERATIONS -INTERNATIONAL MARKETING,Y,120390.4,2016,"SAIPAN, NA",145.7297891,15.1515153
474,CERTIFIED,"BARFRESH, INC.",CHIEF EXECUTIVES,CHIEF EXECUTIVE OFFICER,Y,164050,2016,"BEVERLY HILLS, CALIFORNIA",-118.4003563,34.0736204
475,CERTIFIED,"IMPERIAL PACIFIC INTERNATIONAL (CNMI), LLC",CHIEF EXECUTIVES,VICE PRESIDENT OF OPERATIONS - INTERNATIONAL MARKETING,Y,120390.4,2016,"SAIPAN, NA",145.7297891,15.1515153
476,CERTIFIED,TWENTIETH CENTURY FOX FILM CORPORATION,CHIEF EXECUTIVES,"VICE PRESIDENT, CORPORATE COMPLIANCE",Y,210122,2016,"LOS ANGELES, CALIFORNIA",-118.2436849,34.0522342
477,CERTIFIED,SECTION.IO INCORPORATED,CHIEF EXECUTIVES,CHIEF EXECUTIVE,Y,127795,2016,"BOULDER, COLORADO",-105.2705456,40.0149856
478,CERTIFIED,MASSACHUSETTS MUTUAL LIFE INSURANCE COMPANY,CHIEF EXECUTIVES,"EXECUTIVE VICE PRESIDENT, CHIEF HUMAN RESOURCES OFFICER",Y,164403,2016,"BOSTON, MASSACHUSETTS",-71.0588801,42.3600825
479,CERTIFIED,ETHOS RESEARCH &AMP; DEVELOPMENT LLC,CHIEF EXECUTIVES,CHIEF SCIENTIFIC OFFICER,Y,155958,2016,"NEWPORT, KENTUCKY",NA,NA
480,CERTIFIED,SUN BUM LLC,CHIEF EXECUTIVES,CHIEF EXECUTIVE OFFICER,Y,99986,2016,"ENCINITAS, CALIFORNIA",-117.2919818,33.0369867
481,DENIED,"OAKRIDGE GLOBAL ENERGY SOLUTIONS, INC",CHIEF EXECUTIVES,CHIEF EXECUTIVE OFFICER,Y,194605,2016,"PALM BAY, FLORIDA",-80.5886646,28.0344621
482,CERTIFIED,"LOOK@YOU, INC.",CHIEF EXECUTIVES,"CEO, EXECUTIVE CHAIRMAN",Y,165714,2016,"SAN ANTONIO, TEXAS",-98.4936282,29.4241219
483,CERTIFIED,"OAKRIDGE GLOBAL ENERGY SOLUTIONS, INC",CHIEF EXECUTIVES,CHIEF EXECUTIVE OFFICER,Y,194605,2016,"PALM BAY, FLORIDA",-80.5886646,28.0344621
484,CERTIFIED,MIKE DOLCE MMA INC.,CHIEF EXECUTIVES,CHIEF OPERATING OFFICER,Y,82514,2016,"LAS VEGAS, NEVADA",-115.1398296,36.1699412
485,CERTIFIED,ACENDRE INC,CHIEF EXECUTIVES,CHIEF EXECUTIVE OFFICER,Y,241842,2016,"ARLINGTON, VIRGINIA",-77.1067698,38.8799697
486,CERTIFIED,"VENTANA MEDICAL SYSTEMS, INC.",CHIEF EXECUTIVES,"VP, CLINCIAL SCIENCE",Y,149864,2016,"TUCSON, ARIZONA",-110.926479,32.2217429
487,CERTIFIED,LIFESKINS INC,CHIEF EXECUTIVES,CHIEF EXECUTIVE OFFICER,Y,187200,2016,"SAUSALITO, CALIFORNIA",-122.4852507,37.8590937
488,CERTIFIED,HYDRX SOLUTIONS LLC,CHIEF EXECUTIVES,CHIEF EXECUTIVE OFFICER,Y,228946,2016,"HOUSTON, TEXAS",-95.3698028,29.7604267
489,CERTIFIED,"ION AMERICA, LLC",CHIEF EXECUTIVES,CHIEF EXECUTIVE OFFICER,Y,97739,2016,"MOORESTOWN, NEW JERSEY",-74.948886,39.9688817
490,CERTIFIED,JIVA INFOTECH INC,CHIEF EXECUTIVES,CHIEF OPERATING OFFICER,Y,119912,2016,"DALLAS, TEXAS",-96.7969879,32.7766642
491,CERTIFIED,VERDIGRIS LLC,CHIEF EXECUTIVES,MANAGING DIRECTOR,Y,237245,2016,"CLEVELAND, OHIO",-81.6943605,41.49932
492,CERTIFIED,"FAME & PARTNERS, INC.",CHIEF EXECUTIVES,CHIEF EXECUTIVE OFFICER,Y,164050,2016,"MANHATTAN BEACH, CALIFORNIA",-118.4109089,33.8847361
493,CERTIFIED,"DEEP SPACE INDUSTRIES, INC.",CHIEF EXECUTIVES,CEO,Y,125000,2016,"MOFFETT FIELD, CALIFORNIA",-122.0540996,37.4112691
494,CERTIFIED,"ELDARION, INC.",CHIEF EXECUTIVES,CHIEF TECHNOLOGY OFFICER,Y,164403,2016,"BURLINGTON, MASSACHUSETTS",-71.1956205,42.5047161
495,DENIED,ARRB GROUP INC.,CHIEF EXECUTIVES,CHIEF OPERATING OFFICER,Y,137000,2016,"EXTON, PENNSYLVANIA",-75.6274583,40.0325817
496,DENIED,"GLOBAL POVERTY PROJECT, INC",CHIEF EXECUTIVES,CHIEF OF STAFF,Y,187200,2016,"NEW YORK, NEW YORK",-74.0059413,40.7127837
497,CERTIFIED,FUNDTECH CORPORATION,CHIEF EXECUTIVES,VICE PRESIDENT OF ENGINEERING,Y,163000,2016,"SAN FRANCISCO, CALIFORNIA",-122.4194155,37.7749295
498,CERTIFIED,"GLOBAL POVERTY PROJECT, INC",CHIEF EXECUTIVES,CHIEF OF STAFF,Y,187200,2016,"NEW YORK, NEW YORK",-74.0059413,40.7127837
499,CERTIFIED,SABBATICAL HOLDINGS INC,CHIEF EXECUTIVES,CHIEF OPERATIONS OFFICER,Y,116230,2016,"SAN JUAN, PUERTO RICO",-66.1057355,18.4655394
500,CERTIFIED,MCLEAREN ROAD PROPERTY OWNER LLC,CHIEF EXECUTIVES,CHIEF EXECUTIVE,Y,103480,2016,"WASHINGTON, DISTRICT OF COLUMBIA",-77.0368707,38.9071923
501,CERTIFIED,"FAME & PARTNERS, INC.",CHIEF EXECUTIVES,CHIEF OPERATING OFFICER,Y,117998,2016,"MANHATTAN BEACH, CALIFORNIA",-118.4109089,33.8847361
502,CERTIFIED,MATILDA MEDIA GROUP LLC,CHIEF EXECUTIVES,MANAGING DIRECTOR,Y,117998,2016,"LOS ANGELES, CALIFORNIA",-118.2436849,34.0522342
503,CERTIFIED,"JINDILLI, INC.",CHIEF EXECUTIVES,CHIEF BRAND OFFICER,Y,82930,2016,"OAKBROOK TERRACE, ILLINOIS",-87.9645077,41.8500302
504,CERTIFIED,OUTRIGGER HOTELS HAWAII,CHIEF EXECUTIVES,CHIEF OPERATING OFFICER,Y,202530,2016,"HONOLULU, HAWAII",-157.8583333,21.3069444
505,CERTIFIED,"ALASKA BROADCAST COMMUNICATIONS, INC.",CHIEF EXECUTIVES,GROUP CHIEF EXECUTIVE OFFICER,Y,91458,2016,"JUNEAU, ALASKA",-134.4197222,58.3019444
506,CERTIFIED,"QUICKFEE, INC.",CHIEF EXECUTIVES,MANAGING DIRECTOR,Y,117998,2016,"SANTA MONICA, CALIFORNIA",-118.4911912,34.0194543
507,CERTIFIED,"NITRO CIRCUS LIVE USA, INC.",CHIEF EXECUTIVES,CHIEF EXECUTIVE OFFICER,Y,215155.2,2016,"SAN CLEMENTE, CALIFORNIA",-117.6119925,33.4269728
508,DENIED,BRYDGE TECHNOLOGIES INC.,CHIEF EXECUTIVES,CHIEF COMMERCIAL OFFICER,Y,180700,2016,"PARK CITY, UTAH",-111.4979729,40.6460622
509,CERTIFIED,MANPOWERGROUP GLOBAL INC,CHIEF EXECUTIVES,VICE PRESIDENT GLOBAL OPERATIONS,Y,152713.6,2016,"MILWAUKEE, WISCONSIN",-87.9064736,43.0389025
510,CERTIFIED,"EXCEL TRUST, INC.",CHIEF EXECUTIVES,CEO,Y,246522,2016,"SAN DIEGO, CALIFORNIA",-117.1610838,32.715738
511,DENIED,"AEROSAFE RISK MANAGEMENT, INC.",CHIEF EXECUTIVES,CHIEF EXECUTIVE OFFICER,Y,220708.8,2016,"WASHINGTON, DISTRICT OF COLUMBIA",-77.0368707,38.9071923
512,CERTIFIED,"PACNET SERVICES (USA), INC.",CHIEF EXECUTIVES,SR. VICE PRESIDENT OF CORPORATE DEVELOPMENT,Y,215862,2016,"SAN FRANCISCO, CALIFORNIA",-122.4194155,37.7749295
513,WITHDRAWN,"PANET SERVICES (USA), INC.",CHIEF EXECUTIVES,SR. VICE PRESIDENT OF CORPORATE DEVELOPMENT,Y,215862,2016,"SAN FRANCISCO, CALIFORNIA",-122.4194155,37.7749295
514,CERTIFIED,"ORION HEALTH, INC.",CHIEF EXECUTIVES,"EXECUTIVE VICE PRESIDENT, GLOBAL SERVICES",Y,213200,2016,"SCOTTSDALE, ARIZONA",-111.9260519,33.4941704
515,DENIED,"AEROSAFE RISK MANAGEMENT, INC.",CHIEF EXECUTIVES,CHIEF EXECUTIVE OFFICER,Y,220708.8,2016,"WASHINGTON, DISTRICT OF COLUMBIA",-77.0368707,38.9071923
516,DENIED,TSAR USA LLC,CHIEF EXECUTIVES,MANAGING DIRECTOR,Y,76898,2016,"BROOKLYN, NEW YORK",-73.9441579,40.6781784
517,CERTIFIED,OUTRIGGER HOTELS HAWAII,CHIEF EXECUTIVES,CHIEF OPERATING OFFICER,Y,202530,2016,"HONOLULU, HAWAII",-157.8583333,21.3069444
518,CERTIFIED,"AEROSAFE RISK MANAGEMENT, INC.",CHIEF EXECUTIVES,CHIEF EXECUTIVE OFFICER,Y,220708.8,2016,"WASHINGTON, DISTRICT OF COLUMBIA",-77.0368707,38.9071923
519,CERTIFIED,NEW YORK HOTEL & MOTEL TRADES COUNCIL,CHIEF EXECUTIVES,CHIEF INFORMATION OFFICER,Y,175000,2016,"NEW YORK, NEW YORK",-74.0059413,40.7127837
520,CERTIFIED,"ROCETEER, INC.",CHIEF EXECUTIVES,CHIEF EXECUTIVE OFFICER,Y,225035,2016,"LAS VEGAS, NEVADA",-115.1398296,36.1699412
521,CERTIFIED,"NITRO CIRCUS LIVE USA, INC.",CHIEF EXECUTIVES,CHIEF OPERATING OFFICER,Y,215155.2,2016,"SAN CLEMENTE, CALIFORNIA",-117.6119925,33.4269728
522,CERTIFIED,MAGIACX SOLUTIONS PTY LLC,CHIEF EXECUTIVES,CHIEF EXECUTIVE OFFICER,Y,149594,2016,"RESTON, VIRGINIA",-77.3570028,38.9586307
523,DENIED,TAHLENT INC,CHIEF EXECUTIVES,CHIEF EXECUTIVE OFFICER,Y,111904,2016,"DUBLIN, CALIFORNIA",-121.9357918,37.7021521
524,CERTIFIED,CREATA (USA) INC.,CHIEF EXECUTIVES,CHIEF TECHNOLOGY OFFICER,Y,178776,2016,"OAKBROOK TERRACE, ILLINOIS",-87.9645077,41.8500302
525,DENIED,TSAR USA LLC,CHIEF EXECUTIVES,MANAGING DIRECTOR,Y,233417.6,2016,"BROOKLYN, NEW YORK",-73.9441579,40.6781784
526,CERTIFIED,INCOGNITUS LLC,CHIEF EXECUTIVES,CHIEF EXECUTIVE OFFICER,Y,178942,2016,"ORLANDO, FLORIDA",-81.3792365,28.5383355
527,CERTIFIED,TAHLENT INC,CHIEF EXECUTIVES,CHIEF EXECUTIVE OFFICER,Y,111904,2016,"DUBLIN, CALIFORNIA",-121.9357918,37.7021521
528,CERTIFIED,TSAR USA LLC,CHIEF EXECUTIVES,MANAGING DIRECTOR,Y,233417.6,2016,"BROOKLYN, NEW YORK",-73.9441579,40.6781784
529,CERTIFIED,BRYDGE TECHNOLOGIES INC.,CHIEF EXECUTIVES,CHIEF COMMERCIAL OFFICER,Y,182957,2016,"PARK CITY, UTAH",-111.4979729,40.6460622
530,CERTIFIED,"LIFES2GOOD, INC.",CHIEF EXECUTIVES,CEO NORTH AMERICA,Y,178776,2016,"CHICAGO, ILLINOIS",-87.6297982,41.8781136
531,DENIED,"AMERICAN PATRIOT OIL AND GAS, INC",CHIEF EXECUTIVES,CHIEF EXECUTIVE,Y,219523,2016,"DENVER, COLORADO",-104.990251,39.7392358
532,CERTIFIED,"ASP, INC.",CHIEF EXECUTIVES,EXECUTIVE VICE PRESIDENT,Y,82514,2016,"LAS VEGAS, NEVADA",-115.1398296,36.1699412
533,CERTIFIED,BLUE STONE LANE HOLDINGS LLC,CHIEF EXECUTIVES,CHIEF EXECUTIVE OFFICER,Y,187200,2016,"NEW YORK, NEW YORK",-74.0059413,40.7127837
534,CERTIFIED,"KBR, INC.",CHIEF EXECUTIVES,EXECUTIVE VP - GLOBAL BUSINESS DEVELOPMENT & STRATEGY,Y,283500,2016,"HOUSTON, TEXAS",-95.3698028,29.7604267
535,CERTIFIED,"AMERICAN PATRIOT OIL AND GAS, INC",CHIEF EXECUTIVES,CHIEF EXECUTIVE,Y,219523,2016,"DENVER, COLORADO",-104.990251,39.7392358
536,CERTIFIED,"THE MARSHALL RETAIL GROUP, LLC",CHIEF EXECUTIVES,PRESIDENT AND CHIEF OPERATING OFFICER,Y,225035,2016,"LAS VEGAS, NEVADA",-115.1398296,36.1699412
537,CERTIFIED,"MAS ENERGY, LLC",CHIEF EXECUTIVES,CHIEF OPERATING OFFICER,Y,149885,2016,"PONTE VEDRA BEACH, FLORIDA",-81.3852595,30.2400058
538,CERTIFIED,"FREIGHTPLUS (USA), INC.",CHIEF EXECUTIVES,PRESIDENT,Y,198266,2016,"MARIETTA, GEORGIA",-84.5499327,33.952602
539,CERTIFIED,OKAPI EDUCATIONAL PUBLISHING INC.,CHIEF EXECUTIVES,CHIEF FINANCIAL OFFICER,Y,87797,2016,"TEMECULA, CALIFORNIA",-117.1483648,33.4936391
540,CERTIFIED,"MYZONE, INC.",CHIEF EXECUTIVES,PRESIDENT/GENERAL MANAGER,Y,178776,2016,"CHICAGO, ILLINOIS",-87.6297982,41.8781136
541,CERTIFIED,"SELECT BUSINESS SOLUTIONS, INC",CHIEF EXECUTIVES,"EXECUTIVE VICE PRESIDENT, CORPORATE DEVELOPMENT",Y,289640,2016,"NAPLES, FLORIDA",-81.7948103,26.1420358
542,CERTIFIED,"DRAPAC INVESTMENTS, LLC",CHIEF EXECUTIVES,CHIEF EXECUTIVE OFFICER,Y,198266,2016,"ATLANTA, GEORGIA",-84.3879824,33.7489954
543,CERTIFIED,CLOUD COACH INC,CHIEF EXECUTIVES,CHIEF EXECUTIVE OFFICER,Y,187200,2016,"DENVER, COLORADO",-104.990251,39.7392358
544,CERTIFIED,KERR CORPORATION,CHIEF EXECUTIVES,"GROUP PRESIDENT, PROFESSIONAL CONSUMABLES",Y,187200,2016,"ORANGE, CALIFORNIA",-117.8531119,33.7877944
545,CERTIFIED,MARKETCULTURE STRATEGIES INC,CHIEF EXECUTIVES,CHIEF EXECUTIVE OFFICER,Y,108222,2016,"MONTEREY, CALIFORNIA",-121.8946761,36.6002378
546,CERTIFIED,"ROCKLAND INDUSTRIES, INC.",CHIEF EXECUTIVES,"PRESIDENT, ROCKLAND-BAMBERG DIVISION",Y,96283,2016,"BAMBERG, SOUTH CAROLINA",NA,NA
547,DENIED,COVER-MORE INC.,CHIEF EXECUTIVES,CHIEF EXECUTIVE OFFICER,Y,233418,2016,"NEW YORK, NEW YORK",-74.0059413,40.7127837
548,CERTIFIED,"SAATCHI & SAATCHI NORTH AMERICA, INC.",CHIEF EXECUTIVES,CHIEF CREATIVE OFFICER,Y,631700,2016,"TORRANCE, CALIFORNIA",-118.3406288,33.8358492
549,CERTIFIED,"PROCO GLOBAL, INC.",CHIEF EXECUTIVES,REGIONAL CEO - AMERICAS,Y,233418,2016,"NEW YORK, NEW YORK",-74.0059413,40.7127837
550,CERTIFIED,SHOES OF PREY INC.,CHIEF EXECUTIVES,CHIEF EXECUTIVE OFFICER,Y,117998,2016,"SANTA MONICA, CALIFORNIA",-118.4911912,34.0194543
551,CERTIFIED,"TALENT INTELLIGENCE, INC.",CHIEF EXECUTIVES,CHIEF EXECUTIVE OFFICER/PRESIDENT,Y,226699,2016,"CHICAGO, ILLINOIS",-87.6297982,41.8781136
552,CERTIFIED,PACIFIC RESOURCES FOR EDUCATION AND LEARNING,CHIEF EXECUTIVES,PRESIDENT AND CHIEF EXECUTIVE OFFICER,Y,125590,2016,"HONOLULU, HAWAII",-157.8583333,21.3069444
553,CERTIFIED,VIDIENSE TECHNOLOGY INC.,CHIEF EXECUTIVES,CHIEF EXECUTIVE OFFICER,Y,187200,2016,"MENLO PARK, CALIFORNIA",-122.1817252,37.4529598
554,DENIED,LIVETILES LLC,CHIEF EXECUTIVES,CHIEF TECHNOLOGY OFFICER,Y,187200,2016,"NEW YORK, NEW YORK",-74.0059413,40.7127837
555,CERTIFIED,PIXMOTO,CHIEF EXECUTIVES,CHIEF EXECUTIVE OFFICER,Y,124821,2016,"BOULDER, COLORADO",-105.2705456,40.0149856
556,CERTIFIED,LIVETILES LLC,CHIEF EXECUTIVES,CHIEF TECHNOLOGY OFFICER,Y,196747,2016,"NEW YORK, NEW YORK",-74.0059413,40.7127837
557,CERTIFIED,"LORNA JANE USA, INC.",CHIEF EXECUTIVES,EXECUTIVE VICE PRESIDENT,Y,216403,2016,"SANTA MONICA, CALIFORNIA",-118.4911912,34.0194543
558,DENIED,"ARISTOCRAT TECHNOLOGIES, INC.",CHIEF EXECUTIVES,VP MARKETING & PRODUCT STRATEGY,Y,235165,2016,"LAS VEGAS, NEVADA",-115.1398296,36.1699412
559,WITHDRAWN,KLONDEX MINES LTD,CHIEF EXECUTIVES,V.P. MARKETING & PRODUCT STRATEGY,Y,235165,2016,"LAS VEGAS, NEVADA",-115.1398296,36.1699412
560,CERTIFIED,COVER-MORE INC.,CHIEF EXECUTIVES,CHIEF EXECUTIVE OFFICER,Y,240469,2016,"NEW YORK, NEW YORK",-74.0059413,40.7127837
561,CERTIFIED,NEUROLEADERSHIP INSTITUTE INC.,CHIEF EXECUTIVES,CHIEF EXECUTIVE OFFICER,Y,196747,2016,"NEW YORK, NEW YORK",-74.0059413,40.7127837
562,CERTIFIED,"ARISTOCRAT TECHNOLOGIES, INC.",CHIEF EXECUTIVES,VP MARKETING & PRODUCT STRATEGY,Y,185432,2016,"LAS VEGAS, NEVADA",-115.1398296,36.1699412
563,CERTIFIED,"SUNERA TECHNOLOGIES, INC",CHIEF EXECUTIVES,VICE PRESIDENT,Y,85821,2016,"WOODRIDGE, ILLINOIS",-88.0503406,41.7469749
564,CERTIFIED,"ONEWORLD MANAGEMENT COMPANY, INC.",CHIEF EXECUTIVES,CHIEF FINANCIAL OFFICER,Y,284211,2016,"NEW YORK, NEW YORK",-74.0059413,40.7127837
565,CERTIFIED,GLOBAL ENERGY OPTIONS INC,CHIEF EXECUTIVES,CEO/ MANAGING DIRECTOR,Y,117749,2016,"DENVER, COLORADO",-104.990251,39.7392358
566,CERTIFIED,"UNIVERSAL ROCKS, LLC",CHIEF EXECUTIVES,PRESIDENT/CHIEF EXECUTIVE OFFICER,Y,129438,2016,"GARLAND, TEXAS",-96.6388833,32.912624
567,DENIED,DAYTON FINANCIAL LLC,CHIEF EXECUTIVES,CHIEF FINANCIAL OFFICER,Y,109658,2016,"COKEVILLE, WYOMING",NA,NA
568,CERTIFIED,BOART LONGYEAR COMPANY,CHIEF EXECUTIVES,SENIOR VICE PRESIDENT AND CHIEF FINANCIAL OFFICER,Y,195250,2016,"SALT LAKE CITY, UTAH",-111.8910474,40.7607793
569,CERTIFIED,"RAPIDBUILT, INC.",CHIEF EXECUTIVES,PRESIDENT,Y,119558,2016,"WEATHERFORD, TEXAS",NA,NA
570,DENIED,ROCKETSPACE INC.,CHIEF EXECUTIVES,CHIEF TECHNOLOGY OFFICER,Y,292000,2016,"SAN FRANCISCO, CALIFORNIA",-122.4194155,37.7749295
571,CERTIFIED,ROCKETSPACE INC.,CHIEF EXECUTIVES,CHIEF TECHNOLOGY OFFICER,Y,292000,2016,"SAN FRANCISCO, CALIFORNIA",-122.4194155,37.7749295
572,CERTIFIED,NEXTGEN GAMING (USA) LLC,CHIEF EXECUTIVES,CHIEF PEOPLE AND CULTURE OFFICER,Y,185432,2016,"LAS VEGAS, NEVADA",-115.1398296,36.1699412
573,CERTIFIED,BARBARO GROUP USA INC.,CHIEF EXECUTIVES,CHIEF EXECUTIVE OFFICER,Y,195250,2016,"SALT LAKE CITY, UTAH",-111.8910474,40.7607793
574,CERTIFIED,"GLOBAL POVERTY PROJECT, INC",CHIEF EXECUTIVES,CHIEF EXECUTIVE OFFICER,Y,284211,2016,"NY, NEW YORK",-74.0059413,40.7127837
575,CERTIFIED,SVB EQUITY CAPITAL LLC,CHIEF EXECUTIVES,VICE PRESIDENT - INVESTMENTS,Y,187200,2016,"PALO ALTO, CALIFORNIA",-122.1430195,37.4418834
576,CERTIFIED,THERMO FISHER SCIENTIFIC INC.,CHIEF EXECUTIVES,"VICE PRESIDENT, FINANCE-  GLOBAL CHEMICALS",Y,196747,2016,"FAIR LAWN, NEW JERSEY",-74.1318096,40.9403762
577,CERTIFIED,LFG AMERICA PTY LTD.,CHIEF EXECUTIVES,CHIEF EXECUTIVE OFFICER,Y,284211,2016,"NEW YORK, NEW YORK",-74.0059413,40.7127837
578,CERTIFIED,ZOOX INC.,CHIEF EXECUTIVES,CHIEF EXECUTIVE OFFICER,Y,123053,2016,"MENLO PARK, CALIFORNIA",-122.1817252,37.4529598
579,CERTIFIED,THE WEISSCOMM GROUP LTD,CHIEF EXECUTIVES,CHIEF FINANCIAL OFFICER,Y,278325,2016,"SAN FRANCISCO, CALIFORNIA",-122.4194155,37.7749295
580,CERTIFIED,SUSTAINABLE FISHERIES PARTNERSHIP FOUNDATION,CHIEF EXECUTIVES,CHIEF EXECUTIVE OFFICER,Y,207605,2016,"HONOLULU, HAWAII",-157.8583333,21.3069444
581,CERTIFIED,DEQ SYSTEMS CORPORATION,CHIEF EXECUTIVES,SENIOR VICE PRESIDENT - OPERATIONS,Y,135678,2016,"LAS VEGAS, NEVADA",-115.1398296,36.1699412
582,CERTIFIED,"CLASSIC SLEEPCARE, LLC",CHIEF EXECUTIVES,CHIEF EXECUTIVE OFFICER,Y,235165,2016,"LAS VEGAS, NEVADA",-115.1398296,36.1699412
583,CERTIFIED,INSPECTORATE AMERICA CORPORATION,CHIEF EXECUTIVES,SENIOR VICE PRESIDENT NORTH AMERICA REGION,Y,197642,2016,"HOUSTON, TEXAS",-95.3698028,29.7604267
584,CERTIFIED,PANALITIX USA INC.,CHIEF EXECUTIVES,CHAIRMAN AND CHIEF EXECUTIVE OFFICER,Y,144706,2016,"CORTE MADERA, CALIFORNIA",-122.5274755,37.9254806
585,CERTIFIED,C S RMS LLC,CHIEF EXECUTIVES,PRESIDENT / CEO,Y,210000,2016,"FUQUAY VARINA, NORTH CAROLINA",NA,NA
586,CERTIFIED,"FREIGHTPLUS (USA), INC.",CHIEF EXECUTIVES,"PRESIDENT, USA",Y,92539,2016,"MARIETTA, GEORGIA",-84.5499327,33.952602
587,CERTIFIED,KWICKIE USA SERVICES INC,CHIEF EXECUTIVES,CHIEF EXECUTIVE OFFICER,Y,216403,2016,"SANTA MONICA, CALIFORNIA",-118.4911912,34.0194543
588,CERTIFIED,"SURFSTITCH USA, INC.",CHIEF EXECUTIVES,PRESIDENT,Y,175614,2016,"IRVINE, CALIFORNIA",-117.7946942,33.6839473
589,CERTIFIED,DYNAMIQ US LLC,CHIEF EXECUTIVES,FOUNDER & DIRECTOR OF STRATEGY,Y,164445,2016,"BOULDER, COLORADO",-105.2705456,40.0149856
590,CERTIFIED,PRINCE OF PEACE ENTERPRISES INC.,CHIEF EXECUTIVES,SENIOR VICE PRESIDENT,Y,163176,2016,"HAYWARD, CALIFORNIA",-122.0807964,37.6688205
591,CERTIFIED,CPT GLOBAL INC,CHIEF EXECUTIVES,MANAGING DIRECTOR,Y,284211,2016,"NEW YORK, NEW YORK",-74.0059413,40.7127837
592,CERTIFIED,TRIPLE P AMERICA INC.,CHIEF EXECUTIVES,CEO,Y,177944,2016,"COLUMBIA, SOUTH CAROLINA",-81.0348144,34.0007104
593,CERTIFIED,TRIPLE P AMERICA INC.,CHIEF EXECUTIVES,CEO,Y,177944,2016,"COLUMBIA, SOUTH CAROLINA",-81.0348144,34.0007104
594,CERTIFIED,"PRATT INDUSTRIES, INC.",CHIEF EXECUTIVES,OPERATIONS MANAGER,Y,253635.2,2016,"CONYERS, GEORGIA",-84.0176904,33.6676103
595,CERTIFIED,CQR INC,CHIEF EXECUTIVES,CHIEF EXECUTIVE OFFICER,Y,196747,2016,"NEW YORK, NEW YORK",-74.0059413,40.7127837
596,CERTIFIED,GHD INC.,GENERAL AND OPERATIONS MANAGERS,CORPORATE DEVELOPMENT DIRECTOR,Y,141710,2016,"MAPLE GROVE, MINNESOTA",-93.4557877,45.0724642
597,CERTIFIED-WITHDRAWN,MACQUARIE AIRCRAFT LEASING SERVICES (US) INC.,GENERAL AND OPERATIONS MANAGERS,"VICE PRESIDENT, RISK MANAGEMENT",Y,148824,2016,"SAN FRANCISCO, CALIFORNIA",-122.4194155,37.7749295
598,CERTIFIED-WITHDRAWN,LEVI STRAUSS & CO.,GENERAL AND OPERATIONS MANAGERS,"ASSISTANT MANAGER, ECOMMERCE OPERATIONS",Y,73091.2,2016,"SAN FRANCISCO, CALIFORNIA",-122.4194155,37.7749295
599,CERTIFIED-WITHDRAWN,SUNTECHPROS INC.,GENERAL AND OPERATIONS MANAGERS,OPERATIONS MANAGER,N,66934,2016,"MORRISVILLE, NORTH CAROLINA",-78.8255621,35.823483
600,WITHDRAWN,LIMITED SERVICE CORPORATION,GENERAL AND OPERATIONS MANAGERS,"MANAGER, SPECIAL PROJECTS STORE OPERATIONS",Y,77771,2016,"NEW YORK, NEW YORK",-74.0059413,40.7127837
601,CERTIFIED-WITHDRAWN,"WEATHERFORD INTERNATIONAL, INC.",GENERAL AND OPERATIONS MANAGERS,OPERATIONS MANAGER,Y,86258,2016,"HOUSTON, TEXAS",-95.3698028,29.7604267
602,CERTIFIED-WITHDRAWN,"WAL-MART ASSOCIATES, INC.",GENERAL AND OPERATIONS MANAGERS,PRODUCT MANAGER WEC,Y,74318,2016,"BENTONVILLE, ARKANSAS",-94.2088172,36.3728538
603,CERTIFIED-WITHDRAWN,SEARS HOLDINGS MANAGEMENT CORPORATION,GENERAL AND OPERATIONS MANAGERS,CHIEF OF STAFF,Y,109500,2016,"HOFFMAN ESTATES, ILLINOIS",-88.1227199,42.0629915
604,CERTIFIED-WITHDRAWN,"ACTAVIS, INC.",GENERAL AND OPERATIONS MANAGERS,VICE PRESIDENT GENERIC R&D,Y,144040,2016,"WESTON, FLORIDA",-80.3997748,26.1003654
605,WITHDRAWN,MASTERCARD INTERNATIONAL INCORPORATED,GENERAL AND OPERATIONS MANAGERS,VICE CHAIRMAN,Y,202155,2016,"PURCHASE, NEW YORK",-73.7144477,41.0400135
606,CERTIFIED-WITHDRAWN,BETA RENEWABLES USA INC.,GENERAL AND OPERATIONS MANAGERS,"EXECUTIVE VICE PRESIDENT, PROJECT & BUSINESS DEVELOPMENT - N",Y,151528,2016,"WILMINGTON, NORTH CAROLINA",-77.9447102,34.2257255
607,CERTIFIED-WITHDRAWN,LANDOR LLC,GENERAL AND OPERATIONS MANAGERS,CLIENT MANAGER,N,69597,2016,"SAN FRANCISCO, CALIFORNIA",-122.4194155,37.7749295
608,CERTIFIED-WITHDRAWN,NATIONAL MARINE MANUFACTURERS ASSOCIATION,GENERAL AND OPERATIONS MANAGERS,SHOW MANAGER,N,64210,2016,"ORANGE, CALIFORNIA",-117.8531119,33.7877944
609,CERTIFIED-WITHDRAWN,"ACCRETIVE HEALTH, INC.",GENERAL AND OPERATIONS MANAGERS,VICE PRESIDENT OF CONTINUOUS IMPROVEMENT,Y,141835,2016,"CHICAGO, ILLINOIS",-87.6297982,41.8781136
610,CERTIFIED-WITHDRAWN,NOAH CONSULTING LLC,GENERAL AND OPERATIONS MANAGERS,PRACTICE LEAD-FACILITIES MANAGEMENT PRACTICE,Y,159806,2016,"KATY, TEXAS",-95.8243956,29.7857853
611,CERTIFIED,SVT LLC,GENERAL AND OPERATIONS MANAGERS,VICE PRESIDENT OF IT AND MERCHANT FINANCIALS,Y,128794,2016,"HIGHLAND, INDIANA",NA,NA
612,CERTIFIED-WITHDRAWN,E*TRADE FINANCIAL CORPORATION,GENERAL AND OPERATIONS MANAGERS,"VICE PRESIDENT, TRANSFORMATION",Y,202155,2016,"NEW YORK, NEW YORK",-74.0059413,40.7127837
613,CERTIFIED-WITHDRAWN,"RIO TINTO SERVICES, INC.",GENERAL AND OPERATIONS MANAGERS,GENERAL MANAGER MINING & GEOSCIENCES,Y,129334,2016,"SOUTH JORDAN, UTAH",-111.929658,40.5621704
614,CERTIFIED-WITHDRAWN,BRIGHAM AND WOMEN'S HOSPITAL,GENERAL AND OPERATIONS MANAGERS,DIRECTOR EDUCATION AND RESEARCH,Y,70554,2016,"BOSTON, MASSACHUSETTS",-71.0588801,42.3600825
615,CERTIFIED-WITHDRAWN,ALEXANDER MCQUEEN TRADING LTD.,GENERAL AND OPERATIONS MANAGERS,RETAIL DIRECTOR,Y,204090,2016,"NEW YORK, NEW YORK",-74.0059413,40.7127837
616,WITHDRAWN,"LLOYD'S REGISTER ENERGY AMERICAS, INC.",GENERAL AND OPERATIONS MANAGERS,PROJECT MANAGER,Y,94723,2016,"HOUSTON, TEXAS",-95.3698028,29.7604267
617,CERTIFIED-WITHDRAWN,"BRAZIL GAS LOGISTICS, LLC",GENERAL AND OPERATIONS MANAGERS,PRESIDENT,N,59842,2016,"DALLAS, TEXAS",-96.7969879,32.7766642
618,CERTIFIED-WITHDRAWN,THE UNIVERSITY OF TEXAS M.D. ANDERSON CANCER CENTER,GENERAL AND OPERATIONS MANAGERS,"EXECUTIVE DIRECTOR, BUSINESS DEVELOPMENT AND ANALYTICS",Y,187117,2016,"HOUSTON, TEXAS",-95.3698028,29.7604267
619,WITHDRAWN,"AECOM TECHNICAL SERVICES, INC.",GENERAL AND OPERATIONS MANAGERS,GEOGRAPHY MARKET SECTOR LEADER PRINCIPAL,Y,189592,2016,"SAN FRANCISCO, CALIFORNIA",-122.4194155,37.7749295
620,CERTIFIED-WITHDRAWN,UNIVERSITY OF ILLINOIS,GENERAL AND OPERATIONS MANAGERS,ASSOCIATE DIRECTOR,N,48547,2016,"URBANA, ILLINOIS",-88.2072697,40.1105875
621,CERTIFIED-WITHDRAWN,"CHEN MED, LLC",GENERAL AND OPERATIONS MANAGERS,"MANAGING DIRECTOR, OPERATIONS",Y,157227,2016,"MIAMI GARDENS, FLORIDA",-80.2456045,25.9420377
622,CERTIFIED-WITHDRAWN,"MERLIN PETROLEUM COMPANY, INC.",GENERAL AND OPERATIONS MANAGERS,MANAGER (BUNKER BROKER/TRADER),Y,162136,2016,"WESTPORT, CONNECTICUT",-73.3579049,41.1414717
623,CERTIFIED-WITHDRAWN,"WORLD MONUMENTS FUND, INC.",GENERAL AND OPERATIONS MANAGERS,"DIRECTOR OF PROGRAMS, WORLD MONUMENTS INSTITUTE",Y,119288,2016,"NEW YORK, NEW YORK",-74.0059413,40.7127837
624,CERTIFIED-WITHDRAWN,YOUNOW INC.,GENERAL AND OPERATIONS MANAGERS,CHIEF OPERATING OFFICER,Y,161699,2016,"NEW YORK, NEW YORK",-74.0059413,40.7127837
625,CERTIFIED-WITHDRAWN,"UBER TECHNOLOGIES, INC.",GENERAL AND OPERATIONS MANAGERS,PRODUCT OPERATIONS SPECIALIST,N,69306,2016,"SAN FRANCISCO, CALIFORNIA",-122.4194155,37.7749295
626,CERTIFIED-WITHDRAWN,USA MARBLE AND GRANITE,GENERAL AND OPERATIONS MANAGERS,GENERAL & OPERATIONS MANAGER,Y,77584,2016,"FAIRFAX, VIRGINIA",-77.3063733,38.8462236
627,CERTIFIED-WITHDRAWN,USA CABINET STORE LLC,GENERAL AND OPERATIONS MANAGERS,GENERAL & OPERATIONS MANAGER,Y,77584,2016,"FAIRFAX, VIRGINIA",-77.3063733,38.8462236
628,CERTIFIED-WITHDRAWN,VISA U.S.A. INC.,GENERAL AND OPERATIONS MANAGERS,SENIOR DIRECTOR,Y,163899,2016,"SAN FRANCISCO, CALIFORNIA",-122.4194155,37.7749295
629,CERTIFIED,PANDA EXPRESS INC.,GENERAL AND OPERATIONS MANAGERS,AREA COACH OPERATIONS-IN TRAINING,N,43202,2016,"SIOUX CITY, IOWA",-96.4003069,42.4999942
630,CERTIFIED-WITHDRAWN,NEWMONT INTERNATIONAL SERVICES LIMITED,GENERAL AND OPERATIONS MANAGERS,PROCESS MANAGER,Y,132309,2016,"ENGLEWOOD, COLORADO",-104.9877597,39.6477653
631,CERTIFIED-WITHDRAWN,"NEW IMAGE BUILDING SERVICES, INC.",GENERAL AND OPERATIONS MANAGERS,OPERATIONS / AREA MANAGER,N,53664,2016,"TROY, MICHIGAN",-83.1497751,42.6064095
632,CERTIFIED,MANSUR GAVRIEL LLC,GENERAL AND OPERATIONS MANAGERS,LOGISTICS & OPERATIONS MANAGER,Y,74402,2016,"NEW YORK, NEW YORK",-74.0059413,40.7127837
633,CERTIFIED-WITHDRAWN,YUNEN INC.,GENERAL AND OPERATIONS MANAGERS,GENERAL AND OPERATIONS MANAGER,N,53060.8,2016,"SALINA, KANSAS",NA,NA
634,WITHDRAWN,OGILVY PUBLIC RELATIONS WORLDWIDE INC. - FEINSTEIN KEAN HEALTHCARE,GENERAL AND OPERATIONS MANAGERS,SENIOR LEADER,Y,142667,2016,"WASHINGTON, DISTRICT OF COLUMBIA",-77.0368707,38.9071923
635,CERTIFIED-WITHDRAWN,"REFUGEES INTERNATIONAL, INC.",GENERAL AND OPERATIONS MANAGERS,DIRECTOR OF COMMUNICATIONS AND ACTING MANAGER OF PROGRAM,Y,77584,2016,"WASHINGTON, DISTRICT OF COLUMBIA",-77.0368707,38.9071923
636,CERTIFIED-WITHDRAWN,"PROMONTORY GROWTH AND INNOVATIONS, LLC",GENERAL AND OPERATIONS MANAGERS,MANAGING DIRECTOR,Y,174970,2016,"CONCORD, MASSACHUSETTS",-71.3489484,42.4603719
637,CERTIFIED-WITHDRAWN,YAHOO! INC.,GENERAL AND OPERATIONS MANAGERS,"DIRECTOR, BUSINESS STRATEGY AND TRANSFORMATION",Y,187720,2016,"SUNNYVALE, CALIFORNIA",-122.0363496,37.36883
638,CERTIFIED-WITHDRAWN,"AEES, INC.",GENERAL AND OPERATIONS MANAGERS,"CUSTOMER EXECUTIVE - INDUSTRIAL, RAIL AND TRAILER MARKETS",Y,118248,2016,"FARMINGTON HILLS, MICHIGAN",-83.3677168,42.4989936
639,CERTIFIED-WITHDRAWN,"MOTIVE ENERGY, INC.",GENERAL AND OPERATIONS MANAGERS,OPERATIONS MANAGER,Y,165880,2016,"ANAHEIM, CALIFORNIA",-117.9145036,33.8352932
640,CERTIFIED-WITHDRAWN,TRAIL BLAZERS INC.,GENERAL AND OPERATIONS MANAGERS,"SENIOR VICE PRESIDENT, BUSINESS OPERATIONS",Y,136469,2016,"PORTLAND, OREGON",-122.6764816,45.5230622
641,CERTIFIED,"GIAVA COFFEE COMPANY, LLC",GENERAL AND OPERATIONS MANAGERS,GENERAL MANAGER,Y,74402,2016,"WHITE PLAINS, NEW YORK",-73.7629097,41.0339862
642,CERTIFIED-WITHDRAWN,"L'AUBERGE NEWCO, LLC",GENERAL AND OPERATIONS MANAGERS,GENERAL MANAGER OF RESTAURANTS,Y,96512,2016,"SEDONA, ARIZONA",NA,NA
643,CERTIFIED,FLUKE CORPORATION,GENERAL AND OPERATIONS MANAGERS,"GENERAL MANAGER, AUTOMATION DIVISION",Y,131810,2016,"EVERETT, WASHINGTON",-122.2020794,47.9789848
644,CERTIFIED,SOHO HOUSE  - CIPURA MIAMI LLC,GENERAL AND OPERATIONS MANAGERS,GENERAL MANAGER,Y,135533,2016,"MIAMI, FLORIDA",-80.1917902,25.7616798
645,CERTIFIED-WITHDRAWN,"XEROX STATE & LOCAL SOLUTIONS, INC.",GENERAL AND OPERATIONS MANAGERS,SENIOR OPERATIONS MANAGER,Y,117437,2016,"STATEN ISLAND, NEW YORK",-74.1502007,40.5795317
646,CERTIFIED,"MAGELLAN AEROSPACE NEW YORK, INC.",GENERAL AND OPERATIONS MANAGERS,DIRECTOR OF COMMERCIAL PROGRAMS,Y,74402,2016,"CORONA, NEW YORK",-73.8642613,40.7449859
647,CERTIFIED,"LOCCIONI USA, INC.",GENERAL AND OPERATIONS MANAGERS,MANAGING DIRECTOR,Y,111571,2016,"COLLEGE PARK, MARYLAND",-76.93776,38.9896967
648,CERTIFIED,THE HERTZ CORPORATION,GENERAL AND OPERATIONS MANAGERS,DIRECTOR FLEET STRATEGY,Y,142293,2016,"ESTERO, FLORIDA",NA,NA
649,CERTIFIED-WITHDRAWN,"THEMESOFT, INC.",GENERAL AND OPERATIONS MANAGERS,ASST. MANAGING DIRECTOR,Y,113339,2016,"SAN JOSE, CALIFORNIA",-121.8863286,37.3382082
650,CERTIFIED,"T-MOBILE USA, INC.",GENERAL AND OPERATIONS MANAGERS,PARTNER DELIVERY MANAGER,Y,87526,2016,"ATLANTA, GEORGIA",-84.3879824,33.7489954
651,WITHDRAWN,"SAMSUNG ELECTRONICS AMERICA, INC.",GENERAL AND OPERATIONS MANAGERS,SENIOR OPERATIONS MANAGER,Y,103626,2016,"SIMPSONVILLE, SOUTH CAROLINA",-82.2542834,34.7370639
652,CERTIFIED,ADOBE SYSTEMS INCORPORATED,GENERAL AND OPERATIONS MANAGERS,PRODUCT MARKETING MANAGER,Y,117437,2016,"NEW YORK, NEW YORK",-74.0059413,40.7127837
653,CERTIFIED,VIACOM INTERNATIONAL INC.,GENERAL AND OPERATIONS MANAGERS,OPERATIONS MANAGER,Y,74402,2016,"NEW YORK, NEW YORK",-74.0059413,40.7127837
654,CERTIFIED,ADOBE SYSTEMS INCORPORATED,GENERAL AND OPERATIONS MANAGERS,PRODUCT MANAGER,Y,117437,2016,"NEW YORK, NEW YORK",-74.0059413,40.7127837
655,CERTIFIED,ADOBE SYSTEMS INCORPORATED,GENERAL AND OPERATIONS MANAGERS,SENIOR PRODUCT MANAGER,Y,160451,2016,"NEW YORK, NEW YORK",-74.0059413,40.7127837
656,CERTIFIED,21ST CENTURY FOX AMERICA INC.,GENERAL AND OPERATIONS MANAGERS,BUSINESS MANAGER - MEDIA & ARTS,Y,117437,2016,"NEW YORK, NEW YORK",-74.0059413,40.7127837
657,CERTIFIED,BUPA WORLDWIDE CORPORATION,GENERAL AND OPERATIONS MANAGERS,PROJECT MANAGER II,N,69514,2016,"PALMETTO BAY, FLORIDA",NA,NA
658,CERTIFIED,SUPERIOR GRANITE AND MARBLE BY VIVALDI LLC,GENERAL AND OPERATIONS MANAGERS,OPERATIONS MANAGER,Y,101192,2016,"HOUSTON, TEXAS",-95.3698028,29.7604267
659,CERTIFIED,AOL INC.,GENERAL AND OPERATIONS MANAGERS,"VICE PRESIDENT, GSD OPERATIONS",Y,203486,2016,"NEW YORK, NEW YORK",-74.0059413,40.7127837
660,CERTIFIED,AGILIS ASSOCIATES LLC,GENERAL AND OPERATIONS MANAGERS,OPERATIONS MANAGER,N,57428.8,2016,"OSPREY, FLORIDA",NA,NA
661,CERTIFIED,"ECYCLEIT, LLC",GENERAL AND OPERATIONS MANAGERS,GENERAL MANAGER,Y,137800,2016,"CARROLLTON, TEXAS",-96.8899636,32.9756415
662,CERTIFIED,"THE GAP, INC.",GENERAL AND OPERATIONS MANAGERS,"SENIOR PRODUCT MANAGER - MARKETING, PAYMENTS & LOYALTY",Y,150467,2016,"SAN FRANCISCO, CALIFORNIA",-122.4194155,37.7749295
663,CERTIFIED,UINTA BREWING COMPANY,GENERAL AND OPERATIONS MANAGERS,"OPERATIONS MANAGER, BREWING",N,69867,2016,"SALT LAKE CITY, UTAH",-111.8910474,40.7607793
664,CERTIFIED,"THOUGHTWORKS, INC.",GENERAL AND OPERATIONS MANAGERS,RESOURCE MANAGEMENT MANAGER,Y,110490,2016,"CHICAGO, ILLINOIS",-87.6297982,41.8781136
665,CERTIFIED,HB INTERNATIONAL INC,GENERAL AND OPERATIONS MANAGERS,BUSINESS DEVELOPMENT MANAGER,Y,74401.6,2016,"MOONACHIE, NEW JERSEY",-74.0451405,40.8412111
666,CERTIFIED,THE PROCARD GROUP LIMITED LIABILITY COMPANY,GENERAL AND OPERATIONS MANAGERS,DIRECTOR OF BANK CARD SALES,Y,83616,2016,"NASHVILLE, TENNESSEE",-86.7816016,36.1626638
667,CERTIFIED,NATIONAL INSTITUTE FOR NEWMAN STUDIES,GENERAL AND OPERATIONS MANAGERS,RESEARCH COORDINATOR,N,52374.4,2016,"PITTSBURGH, PENNSYLVANIA",-79.9958864,40.4406248
668,CERTIFIED,AMAZON.COM.INDC LLC,GENERAL AND OPERATIONS MANAGERS,SENIOR OPERATIONS MANAGER,Y,83408,2016,"WHITESTOWN, INDIANA",NA,NA
669,CERTIFIED,"SAMSUNG ELECTRONICS AMERICA, INC.",GENERAL AND OPERATIONS MANAGERS,SENIOR OPERATIONS MANAGER,Y,103626,2016,"SIMPSONVILLE, SOUTH CAROLINA",-82.2542834,34.7370639
670,CERTIFIED,BETH ISRAEL MEDICAL CENTER,GENERAL AND OPERATIONS MANAGERS,MANAGER OPERATIONS & BUSINESS DEVELOPMENT,Y,74402,2016,"NEW YORK, NEW YORK",-74.0059413,40.7127837
671,CERTIFIED,BLACK SPEAR GROUP INC.,GENERAL AND OPERATIONS MANAGERS,EXECUTIVE VICE PRESIDENT,Y,121014,2016,"MARIETTA, GEORGIA",-84.5499327,33.952602
672,CERTIFIED,SYSCO CORPORATION,GENERAL AND OPERATIONS MANAGERS,"SENIOR MANAGER, PROFITABILITY MANAGEMENT",Y,101192,2016,"HOUSTON, TEXAS",-95.3698028,29.7604267
673,CERTIFIED,CRANE CO.,GENERAL AND OPERATIONS MANAGERS,"MANAGER, CRANE BUSINESS SYSTEMS",Y,80579,2016,"CINCINNATI, OHIO",-84.5120196,39.1031182
674,CERTIFIED,"MODERN INSTITUTE OF SURGERY, INC.",GENERAL AND OPERATIONS MANAGERS,PATIENT STRATEGIES & OPERATIONS ANALYST,N,57034,2016,"BEVERLY HILLS, CALIFORNIA",-118.4003563,34.0736204
675,CERTIFIED,NORWEGIAN AMERICAN DEFENSE INDUSTRY COUNCIL,GENERAL AND OPERATIONS MANAGERS,GENERAL MANAGER,Y,77626,2016,"ALEXANDRIA, VIRGINIA",-77.0469214,38.8048355
676,CERTIFIED,NORWEGIAN AMERICAN DEFENSE INDUSTRY COUNCIL,GENERAL AND OPERATIONS MANAGERS,GENERAL MANAGER,Y,77626,2016,"ALEXANDRIA, VIRGINIA",-77.0469214,38.8048355
677,CERTIFIED,AGILIS ASSOCIATES LLC,GENERAL AND OPERATIONS MANAGERS,OPERATIONS MANAGER,N,57428.8,2016,"OSPREY, FLORIDA",NA,NA
678,CERTIFIED,"BEST MADE TOYS, LLC",GENERAL AND OPERATIONS MANAGERS,CHIEF EXECUTIVE OFFICER,Y,163010,2016,"RANCHO PALOS VERDES, CALIFORNIA",-118.3870173,33.7444613
679,CERTIFIED,"TROON GOLF, LLC",GENERAL AND OPERATIONS MANAGERS,GENERAL MANAGER,Y,133099,2016,"HOLLYWOOD, FLORIDA",-80.1494901,26.0112014
680,CERTIFIED,T.F. HUDGINS,GENERAL AND OPERATIONS MANAGERS,GENERAL MANAGER,Y,138403,2016,"TOMBALL, TEXAS",-95.6160549,30.0971621
681,CERTIFIED,TOTAL PRODUCE USA HOLDINGS INC,GENERAL AND OPERATIONS MANAGERS,CORPORATE DEVELOPMENT MANAGER- LEGAL ADVISOR,N,59696,2016,"NEWPORT BEACH, CALIFORNIA",-117.9289469,33.6189101
682,CERTIFIED,NYGALA INC,GENERAL AND OPERATIONS MANAGERS,GENERAL OPERATIONS MANAGER,Y,117437,2016,"TETERBORO, NEW JERSEY",-74.0593075,40.8598219
683,CERTIFIED,FIESTA MEXICANA INC.,GENERAL AND OPERATIONS MANAGERS,OPERATIONS MANAGER,N,36483,2016,"MYRTLE BEACH, SOUTH CAROLINA",-78.8866943,33.6890603
684,CERTIFIED,SUPERIOR GRANITE AND MARBLE BY VIVALDI LLC,GENERAL AND OPERATIONS MANAGERS,OPERATIONS MANAGER,Y,101192,2016,"HOUSTON, TEXAS",-95.3698028,29.7604267
